"address","borough","zipcode","lon","lat","risk1"
"- 302 BEVERLY ROAD","BK",11226,-73.9483,40.645,0
"-19 A/B 74 STREET","QN",11373,-73.8899,40.7403,0
"1 1/2 5 AVENUE","MN",10003,-73.9963,40.7314,0
"1 74 STREET","BK",11209,-74.0361,40.6346,0
"1 ADRIAN AVENUE","MN",10463,-73.9127,40.876,0
"1 ALDEN PARK","BX",10465,-73.8068,40.822,0
"1 ASCAN AVENUE","QN",11375,-73.8414,40.7175,0
"1 AUDUBON AVENUE","MN",10032,-73.9392,40.8388,0
"1 BOGARDUS PLACE","MN",10040,-73.9292,40.8589,0
"1 BROADWAY TERRACE","MN",10040,-73.9317,40.857,0
"1 CABRINI BOULEVARD","MN",10033,-73.941,40.8483,0
"1 CAMBRIDGE PLACE","BK",11238,-73.9632,40.6869,0
"1 CHRISTOPHER STREET","MN",10014,-74,40.7342,0
"1 COENTIES SLIP","MN",10004,-74.0108,40.7034,0
"1 CONVENT AVENUE","MN",10027,-73.9529,40.8129,0
"1 DELANCEY STREET","MN",10002,-73.9937,40.72,0
"1 EAST 124 STREET","MN",10035,-73.9422,40.8057,0
"1 EAST 198 STREET","BX",10468,-73.8925,40.8714,0
"1 EAST 213 STREET","BX",10467,-73.8789,40.8852,0
"1 EAST 35 STREET","MN",10016,-73.9834,40.7491,0
"1 EAST 93 STREET","MN",10128,-73.9565,40.7859,0
"1 ELTON STREET","BK",11208,-73.8854,40.6836,0
"1 JACOBUS PLACE","MN",10463,-73.9122,40.8754,0
"1 KING STREET","MN",10012,-74.0027,40.7278,0
"1 MARBLE HILL AVENUE","MN",10463,-73.9111,40.875,0
"1 MONROE PLACE","BK",11201,-73.9924,40.6972,0
"1 MORNINGSIDE DRIVE","MN",10025,-73.9617,40.8024,0
"1 NORTH 4 PLACE","BK",11249,-73.9649,40.7197,0
"1 OLD FULTON STREET","BK",11201,-73.994,40.7031,1
"1 PARADE PLACE","BK",11226,-73.9658,40.6531,0
"1 PENNYFIELD AVENUE","BX",10465,-73.8019,40.8097,0
"1 PROSPECT PARK SW","BK",11215,-73.9796,40.6604,0
"1 RIDGEWOOD PLACE","BK",11237,-73.9115,40.6989,0
"1 RIVER PLACE","MN",10036,-74.0005,40.7613,0
"1 SEAMAN AVENUE","MN",10034,-73.9275,40.8662,0
"1 SHERIDAN SQUARE","MN",10014,-74.0018,40.7328,0
"1 SHERMAN AVENUE","MN",10040,-73.9292,40.862,0
"1 SICKLES STREET","MN",10040,-73.9267,40.8604,0
"1 SLOSSON TERRACE","SI",10301,-74.0758,40.6398,0
"1 SOUTH OXFORD STREET","BK",11217,-73.9738,40.6895,0
"1 SPENCER COURT","BK",11205,-73.9541,40.6909,0
"1 ST FRANCIS PLACE","BK",11216,-73.9563,40.6721,0
"1 ST NICHOLAS TERRACE","MN",10027,-73.9524,40.8126,0
"1 ST PAULS COURT","BK",11226,-73.9624,40.651,0
"1 STATION SQUARE","QN",11375,-73.8451,40.7188,0
"1 TENNIS COURT","BK",11226,-73.9626,40.6487,0
"1 TUDOR CITY PLACE","MN",10017,-73.9709,40.748,0
"1 UNIVERSITY PLACE","MN",10003,-73.9951,40.7307,0
"1 WADSWORTH AVENUE","MN",10033,-73.9383,40.8447,0
"1 WASHINGTON SQ VLLGE","MN",10012,-73.9972,40.7281,0
"1 WEEHAWKEN STREET","MN",10014,-74.0096,40.7331,0
"1 WEST 64 STREET","MN",10023,-73.9799,40.7715,0
"1 WILLOW PLACE","BK",11201,-73.9976,40.6934,0
"10 5 AVENUE","MN",10011,-73.9966,40.7325,0
"10 ADRIAN AVENUE","MN",10463,-73.9121,40.8759,0
"10 AVENUE P","BK",11204,-73.9879,40.6068,0
"10 CHARLES STREET","MN",10014,-74.0008,40.735,0
"10 CHRISTOPHER STREET","MN",10014,-74.0002,40.7338,0
"10 CLERMONT AVENUE","BK",11205,-73.9721,40.6975,0
"10 COLUMBIA PLACE","BK",11201,-73.9989,40.6934,0
"10 DELANCEY STREET","MN",10002,-73.9932,40.7204,0
"10 EAST 102 STREET","MN",10029,-73.9524,40.7912,0
"10 EAST 102 STREET","MN",10029,NA,NA,0
"10 EAST 116 STREET","MN",10029,-73.9459,40.8001,1
"10 EAST 132 STREET","MN",10037,-73.9384,40.8103,0
"10 EAST 198 STREET","BX",10468,-73.893,40.8711,0
"10 EAST 28 STREET","MN",10016,-73.9866,40.7441,0
"10 EAST 78 STREET","MN",10075,-73.9636,40.7758,0
"10 EAST END AVENUE","MN",10075,-73.9482,40.7711,0
"10 ELDERT STREET","BK",11207,-73.914,40.6854,0
"10 ELIZABETH STREET","MN",10013,-73.9972,40.7157,0
"10 FAIRVIEW AVENUE","MN",10040,-73.929,40.8572,0
"10 FORREST STREET","BK",11206,-73.936,40.7004,0
"10 FT WASHINGTON AVENUE","MN",10032,-73.9444,40.836,0
"10 GOODWIN PLACE","BK",11221,-73.9247,40.6918,0
"10 HAVEMEYER STREET","BK",11211,-73.9532,40.7164,0
"10 HILLSIDE AVENUE","MN",10040,-73.9305,40.8591,0
"10 LIBERTY STREET","MN",10005,-74.0082,40.7074,0
"10 MANHATTAN AVENUE","MN",10025,-73.9637,40.7952,0
"10 MAPLE STREET","BK",11225,-73.9603,40.66,0
"10 MENAHAN STREET","BK",11221,-73.9224,40.6924,0
"10 MIDWOOD STREET","BK",11225,-73.9602,40.6593,0
"10 MONTAGUE TERRACE","BK",11201,-73.9979,40.6952,0
"10 MORTON STREET","MN",10014,-74.0035,40.7311,0
"10 OCEAN PARKWAY","BK",11218,-73.9733,40.6513,0
"10 OVERLOOK TERRACE","MN",10033,-73.9361,40.8531,0
"10 PARK HILL AVENUE","SI",10304,-74.0782,40.6184,0
"10 PARK TERRACE EAST","MN",10034,-73.9175,40.8696,0
"10 PELL STREET","MN",10013,-73.9976,40.7149,0
"10 PLAZA ST EAST","BK",11238,-73.9709,40.6757,0
"10 PROSPECT PARK SW","BK",11215,-73.9791,40.6604,0
"10 PULASKI STREET","BK",11206,-73.9513,40.6919,0
"10 RUTGERS STREET","MN",10002,-73.9905,40.7138,0
"10 SACKMAN STREET","BK",11233,-73.9064,40.679,0
"10 SHORE BOULEVARD","BK",11235,-73.9545,40.5825,0
"10 ST MARKS PLACE","MN",10003,-73.9894,40.729,0
"10 WEST 103 STREET","MN",10025,-73.9624,40.7962,1
"10 WEST 107 STREET","MN",10025,-73.9605,40.7989,0
"10 WEST 119 STREET","MN",10026,-73.9458,40.8027,0
"10 WEST 135 STREET","MN",10037,-73.9388,40.8126,0
"10 WEST 182 STREET","BX",10453,-73.9053,40.857,0
"10 WEST 65 STREET","MN",10023,-73.9803,40.772,0
"10 WEST 75 STREET","MN",10023,-73.9755,40.7783,0
"10 WEST 76 STREET","MN",10023,-73.975,40.7789,0
"10 WEST 87 STREET","MN",10024,-73.9696,40.7861,0
"10 WEST 90 STREET","MN",10024,-73.9684,40.788,0
"10 WESTMINSTER ROAD","BK",11218,-73.969,40.6489,0
"10-01 162 STREET","QN",11357,-73.7992,40.7924,0
"10-03 WYCKOFF AVENUE","QN",11385,NA,NA,0
"10-05 34 AVENUE","QN",11106,-73.9382,40.765,0
"10-06 NEILSON STREET","QN",11691,-73.7474,40.6036,0
"10-09 34 AVENUE","QN",11106,-73.9381,40.765,0
"10-10 166 STREET","QN",11357,-73.7985,40.792,0
"10-11 162 STREET","QN",11357,-73.7995,40.7921,0
"10-11 34 AVENUE","QN",11106,-73.938,40.765,0
"10-11 50 AVENUE","QN",11101,-73.9534,40.7428,0
"10-11 NEILSON STREET","QN",11691,-73.7481,40.6033,0
"10-12 37 AVENUE","QN",11101,-73.9414,40.7597,1
"10-12 47 AVENUE","QN",11101,-73.9527,40.7452,0
"10-12 NAMEOKE STREET","QN",11691,-73.7486,40.6033,0
"10-14 37 AVENUE","QN",11101,-73.9413,40.7597,0
"10-15 36 AVENUE","QN",11106,-73.9401,40.7614,0
"10-15 WYCKOFF AVENUE","QN",11385,NA,NA,0
"10-17 47 AVENUE","QN",11101,-73.9523,40.7455,0
"10-17 WYCKOFF AVENUE","QN",11385,NA,NA,0
"10-21 162 STREET","QN",11357,-73.7992,40.7918,0
"10-22 47 ROAD","QN",11101,-73.9525,40.7444,0
"10-24 166 STREET","QN",11357,-73.7983,40.7916,0
"10-25 47 ROAD","QN",11101,-73.9523,40.7448,1
"10-26 47 ROAD","QN",11101,-73.9523,40.7444,0
"10-28 JACKSON AVENUE","QN",11101,-73.9532,40.742,0
"10-30 NEILSON STREET","QN",11691,-73.7475,40.604,0
"10-32 49 AVENUE","QN",11101,-73.9528,40.743,0
"10-33 115 STREET","QN",11356,-73.8522,40.7877,0
"10-35 115 STREET","QN",11356,-73.8522,40.7876,0
"10-36 NEILSON STREET","QN",11691,-73.7476,40.6043,0
"10-37 48 AVENUE","QN",11101,-73.9522,40.744,0
"10-37 BEACH 9 STREET","QN",11691,NA,NA,0
"10-38 47 ROAD","QN",11101,-73.952,40.7443,0
"10-39 115 STREET","QN",11356,-73.8521,40.7875,1
"10-39 48 AVENUE","QN",11101,-73.9521,40.744,0
"10-41 115 STREET","QN",11356,-73.8521,40.7875,0
"10-41 48 AVENUE","QN",11101,-73.952,40.744,0
"10-43 47 AVENUE","QN",11101,-73.9515,40.7454,0
"10-44 WYCKOFF AVENUE","QN",11385,NA,NA,0
"10-45 115 STREET","QN",11356,-73.8521,40.7874,0
"10-47 115 STREET","QN",11356,-73.8521,40.7873,0
"10-47 47 AVENUE","QN",11101,-73.9514,40.7454,0
"10-49 115 STREET","QN",11356,-73.8521,40.7873,0
"10-49 48 AVENUE","QN",11101,-73.9517,40.744,0
"10-50 44 DRIVE","QN",11101,-73.9499,40.7483,1
"10-51 49 AVENUE","QN",11101,-73.9518,40.7433,0
"10-53 115 STREET","QN",11356,-73.8521,40.7872,0
"10-55 115 STREET","QN",11356,-73.8521,40.7871,1
"10-56 NEILSON STREET","QN",11691,-73.7478,40.6047,0
"10-57 115 STREET","QN",11356,-73.8521,40.787,0
"10-61 115 STREET","QN",11356,-73.8521,40.787,0
"100 1 AVENUE","MN",10009,-73.9859,40.7264,0
"100 2 AVENUE","MN",10003,-73.9883,40.7271,0
"100 7 AVENUE","MN",10011,-73.9989,40.7402,0
"100 ADELPHI STREET","BK",11205,-73.9724,40.6946,0
"100 AUDUBON AVENUE","MN",10032,-73.9376,40.842,0
"100 AVENUE P","BK",11204,-73.9848,40.6072,0
"100 BAY RIDGE AVENUE","BK",11220,-74.0323,40.6374,0
"100 BEDFORD AVENUE","BK",11249,-73.9552,40.7205,0
"100 BENNETT AVENUE","MN",10033,-73.9356,40.8534,0
"100 CABRINI BOULEVARD","MN",10033,-73.9405,40.8516,0
"100 CENTRAL PARK SOUTH","MN",10019,-73.9767,40.7655,0
"100 CHARLTON STREET","MN",10014,-74.008,40.7272,0
"100 CHRISTOPHER STREET","MN",10014,-74.0048,40.7331,0
"100 CLAY STREET","BK",11222,-73.9542,40.7365,0
"100 COLFAX AVENUE","SI",10306,-74.1078,40.5797,0
"100 CONVENT AVENUE","MN",10027,-73.953,40.8167,0
"100 DANIEL LOW TERRACE","SI",10301,-74.0803,40.6426,0
"100 DIAMOND STREET","BK",11222,-73.9469,40.7262,0
"100 EAGLE STREET","BK",11222,-73.9569,40.7348,0
"100 EAST 123 STREET","MN",10035,-73.9399,40.8035,0
"100 EAST 18 STREET","BK",11226,-73.9632,40.6487,0
"100 EAST 182 STREET","BX",10453,-73.9027,40.8565,0
"100 EAST 21 STREET","BK",11226,-73.9605,40.6516,0
"100 EAST 7 STREET","MN",10009,-73.9852,40.7265,0
"100 EAST 92 STREET","BK",11212,-73.9283,40.6622,0
"100 EAST MOSHOLU PARKWAY","BX",10458,-73.884,40.8765,0
"100 ECKFORD STREET","BK",11222,-73.9481,40.7232,0
"100 FORSYTH STREET","MN",10002,-73.9926,40.7182,1
"100 FRANKLIN AVENUE","BK",11205,-73.9586,40.696,0
"100 FT WASHINGTON AVENUE","MN",10032,-73.9433,40.8386,0
"100 GREENPOINT AVENUE","BK",11222,-73.9569,40.7297,0
"100 HART STREET","BK",11206,-73.9476,40.6931,0
"100 HURON STREET","BK",11222,-73.9575,40.7325,0
"100 INDIA STREET","BK",11222,-73.9563,40.7319,1
"100 JACKSON STREET","BK",11211,-73.9474,40.7162,0
"100 KENT STREET","BK",11222,-73.957,40.7304,0
"100 LEFFERTS AVENUE","BK",11225,-73.9579,40.6617,0
"100 LENOX AVENUE","MN",10026,-73.9497,40.8013,0
"100 LEXINGTON AVENUE","MN",10016,-73.9831,40.7422,0
"100 LINDEN BOULEVARD","BK",11226,-73.9551,40.652,0
"100 LINDEN STREET","BK",11221,-73.9196,40.6928,0
"100 LUQUER STREET","BK",11231,-74.0015,40.6776,0
"100 MACON STREET","BK",11216,-73.947,40.6811,0
"100 MADISON STREET","MN",10002,-73.9955,40.712,0
"100 MARINE AVENUE","BK",11209,-74.0366,40.6177,0
"100 MARTIN L KING PLACE","BK",11206,-73.9489,40.6967,0
"100 MOTT STREET","MN",10013,-73.9972,40.7173,1
"100 OCEAN PARKWAY","BK",11218,-73.9757,40.6482,0
"100 OVERLOOK TERRACE","MN",10040,-73.9348,40.8563,0
"100 POST AVENUE","MN",10034,-73.9211,40.8644,0
"100 POWERS STREET","BK",11211,-73.9469,40.7119,0
"100 PULASKI STREET","BK",11206,-73.9474,40.6924,0
"100 RALPH AVENUE","BK",11221,-73.9237,40.6866,0
"100 REMSEN STREET","BK",11201,-73.9945,40.6938,0
"100 RIVERSIDE DRIVE","MN",10024,-73.9809,40.787,0
"100 RIVINGTON STREET","MN",10002,-73.9881,40.7202,0
"100 ROGERS AVENUE","BK",11216,-73.9531,40.6733,0
"100 SEAMAN AVENUE","MN",10034,-73.9244,40.8686,0
"100 STANTON STREET","MN",10002,-73.9879,40.7214,0
"100 STARR STREET","BK",11237,-73.9256,40.7022,1
"100 STUYVESANT PLACE","SI",10301,-74.078,40.6437,0
"100 SUFFOLK STREET","MN",10002,-73.9861,40.7185,0
"100 SULLIVAN STREET","MN",10012,-74.0033,40.7257,0
"100 TROUTMAN STREET","BK",11206,-73.9299,40.699,1
"100 UNITED NATIONS PLAZA","MN",10017,-73.9676,40.7531,0
"100 VELTMAN AVENUE","SI",10302,-74.134,40.6256,0
"100 WEST 138 STREET","MN",10037,-73.9399,40.816,0
"100 WEST 143 STREET","MN",10037,-73.9376,40.8192,0
"100 WEST 174 STREET","BX",10453,-73.9178,40.8468,0
"100 WEST 3 STREET","MN",10012,-73.9996,40.7299,0
"100 WEST 67 STREET","MN",10023,-73.9815,40.7743,0
"100 WEST 69 STREET","MN",10023,-73.9805,40.7754,0
"100 WEST 71 STREET","MN",10023,-73.9796,40.7766,0
"100 WEST 72 STREET","MN",10023,-73.9792,40.7773,0
"100 WEST 73 STREET","MN",10023,-73.9786,40.778,0
"100 WEST 74 STREET","MN",10023,-73.9782,40.7786,1
"100 WEST 85 STREET","MN",10024,-73.973,40.7857,0
"100 WEST 86 STREET","MN",10024,-73.9725,40.7863,0
"100 WEST 93 STREET","MN",10025,-73.9696,40.7908,0
"100 WINTHROP STREET","BK",11225,-73.9568,40.6565,0
"100 WOODRUFF AVENUE","BK",11226,-73.9625,40.6535,0
"100-02 37 AVENUE","QN",11368,-73.867,40.7523,1
"100-04 37 AVENUE","QN",11368,-73.8669,40.7524,1
"100-06 37 AVENUE","QN",11368,-73.8669,40.7524,0
"100-06 40 ROAD","QN",11368,-73.8647,40.7486,0
"100-09 32 AVENUE","QN",11369,-73.8684,40.7594,0
"100-10 37 AVENUE","QN",11368,-73.8668,40.7524,1
"100-10 67 ROAD","QN",11375,-73.853,40.7255,0
"100-11 67 ROAD","QN",11375,-73.8536,40.7259,0
"100-12 37 AVENUE","QN",11368,-73.8667,40.7524,0
"100-14 37 AVENUE","QN",11368,-73.8666,40.7525,1
"100-16 37 AVENUE","QN",11368,-73.8665,40.7525,1
"100-18 37 AVENUE","QN",11368,-73.8665,40.7525,1
"100-18 40 ROAD","QN",11368,-73.8643,40.7486,0
"100-20 37 AVENUE","QN",11368,-73.8664,40.7525,0
"100-20 40 ROAD","QN",11368,-73.8642,40.7486,1
"100-22 37 AVENUE","QN",11368,-73.8663,40.7526,1
"100-25 QUEENS BOULEVARD","QN",11375,-73.8524,40.7272,0
"100-26 67 ROAD","QN",11375,-73.8528,40.7259,0
"1000 HOE AVENUE","BX",10459,-73.8903,40.8234,1
"1000 NOSTRAND AVENUE","BK",11225,-73.9513,40.6642,0
"1000 PARK AVENUE","MN",10028,-73.9585,40.7792,0
"1000 PARK PLACE","BK",11213,-73.9441,40.6728,0
"1001 AVENUE H","BK",11230,-73.9669,40.6297,0
"1001 DECATUR STREET","BK",11207,-73.9116,40.685,1
"1001 DORCHESTER ROAD","BK",11218,-73.968,40.6376,0
"1001 DR M L KING JR BLVD","BX",10452,-73.931,40.8338,0
"1001 EAST 108 STREET","BK",11236,-73.89,40.6472,0
"1001 EAST 167 STREET","BX",10459,-73.8895,40.827,0
"1001 FINDLAY AVENUE","BX",10456,-73.915,40.8286,0
"1001 GRAND CONCOURSE","BX",10452,-73.9215,40.83,0
"1001 HOME STREET","BX",10459,-73.8894,40.829,0
"1001 JEROME AVENUE","BX",10452,-73.9271,40.8311,0
"1001 LINCOLN PLACE","BK",11213,-73.9435,40.6706,0
"1001 OCEAN AVENUE","BK",11226,-73.9585,40.6381,0
"1001 PUTNAM AVENUE","BK",11221,-73.9208,40.6876,1
"1001 ST NICHOLAS AVENUE","MN",10032,-73.9406,40.834,0
"1001 WOODYCREST AVENUE","BX",10452,-73.9283,40.8328,0
"1002 AVENUE H","BK",11230,-73.9667,40.6292,0
"1002 CASTLE HILL AVENUE","BX",10472,-73.8498,40.8278,0
"1002 DECATUR STREET","BK",11207,-73.9111,40.6847,1
"1002 FOSTER AVENUE","BK",11230,-73.9671,40.6318,0
"1002 GARRISON AVENUE","BX",10474,-73.8901,40.8187,1
"1002 PARK PLACE","BK",11213,-73.944,40.6728,1
"1003 DECATUR STREET","BK",11207,-73.9115,40.6851,0
"1003 GRANT AVENUE","BX",10456,-73.9177,40.8294,0
"1003 LAFAYETTE AVENUE","BK",11221,-73.9319,40.6923,1
"1003 WILLMOHR STREET","BK",11212,-73.9207,40.6555,0
"1004 2 AVENUE","MN",10022,-73.9668,40.7568,0
"1004 57 STREET","BK",11219,-74.0034,40.6342,1
"1004 HEGEMAN AVENUE","BK",11208,-73.8756,40.6666,0
"1004 MONTGOMERY STREET","BK",11213,-73.9311,40.6641,0
"1004 UNION STREET","BK",11225,-73.959,40.6696,0
"1005 45 STREET","BK",11219,-73.9959,40.6412,0
"1005 46 STREET","BK",11219,-73.9966,40.6406,0
"1005 ESPLANADE","BX",10461,-73.8601,40.8552,0
"1005 JEROME AVENUE","BX",10452,-73.9266,40.8317,0
"1005 LINCOLN PLACE","BK",11213,-73.9433,40.6706,0
"1005 MORRIS PARK AVENUE","BX",10462,-73.8562,40.8484,1
"1005 WALTON AVENUE","BX",10452,-73.9225,40.8304,0
"1006 1 AVENUE","MN",10022,-73.9631,40.7571,0
"1006 57 STREET","BK",11219,-74.0033,40.6342,1
"1006 CATON AVENUE","BK",11218,-73.9704,40.6485,0
"1006 DECATUR STREET","BK",11207,-73.9111,40.6848,1
"1006 FULTON STREET","BK",11238,-73.9606,40.6819,0
"1006 GERARD AVENUE","BX",10452,-73.9229,40.8305,0
"1006 GRANT AVENUE","BX",10456,-73.9172,40.8294,0
"1006 INTERVALE AVENUE","BX",10459,-73.8965,40.8234,0
"1007 2 AVENUE","MN",10022,-73.9673,40.7571,1
"1007 DECATUR STREET","BK",11207,-73.9115,40.6851,0
"1007 GRANT AVENUE","BX",10456,-73.9175,40.8296,0
"1007 LEXINGTON AVENUE","MN",10021,-73.9617,40.7707,1
"1007 PUTNAM AVENUE","BK",11221,-73.9205,40.6877,0
"1007 SOUTHERN BOULEVARD","BX",10459,-73.8922,40.823,1
"1008 GARRISON AVENUE","BX",10474,-73.89,40.8188,0
"1008 MANHATTAN AVENUE","BK",11222,-73.9545,40.7334,1
"1008 SUMMIT AVENUE","BX",10452,-73.9298,40.8334,0
"1008 WILLOUGHBY AVENUE","BK",11221,-73.9287,40.6988,0
"1009 BROADWAY","BK",11221,-73.9331,40.6961,0
"1009 EAST 225 STREET","BX",10466,-73.8515,40.8851,0
"1009 LINCOLN PLACE","BK",11213,-73.9431,40.6706,0
"1009 MADISON AVENUE","MN",10075,-73.9626,40.7753,0
"1009 PARK AVENUE","MN",10028,-73.9575,40.7791,0
"101 2 AVENUE","MN",10003,-73.9889,40.7274,0
"101 3 AVENUE","BK",11217,-73.9818,40.6831,0
"101 7 AVENUE","MN",10011,-73.9982,40.74,0
"101 7 AVENUE SOUTH","MN",10014,-74.0028,40.7331,1
"101 ARLINGTON AVENUE","BK",11207,-73.891,40.6801,0
"101 AUDUBON AVENUE","MN",10032,-73.9371,40.8418,0
"101 AVENUE D","MN",10009,-73.9766,40.7235,0
"101 BAY 37 STREET","BK",11214,-73.9906,40.5966,0
"101 BEDFORD AVENUE","BK",11211,-73.9546,40.72,0
"101 BERGEN STREET","BK",11201,-73.9894,40.6865,0
"101 BRIGHTWATER COURT","BK",11235,-73.9663,40.5757,0
"101 CHARLES STREET","MN",10014,-74.0055,40.7347,0
"101 DELANCEY STREET","MN",10002,-73.9889,40.7185,0
"101 DONLEY AVENUE","SI",10305,-74.0756,40.6077,0
"101 DUANE STREET","MN",10007,-74.006,40.7157,0
"101 DYCKMAN STREET","MN",10040,-73.9246,40.862,0
"101 EAST 100 STREET","MN",10029,-73.9503,40.7892,0
"101 EAST 102 STREET","MN",10029,-73.9494,40.7904,1
"101 EAST 116 STREET","MN",10029,-73.9427,40.7994,0
"101 EAST 168 STREET","BX",10452,-73.918,40.8365,0
"101 EAST 179 STREET","BX",10453,-73.9064,40.8519,0
"101 EAST 29 STREET","BK",11226,-73.9499,40.6467,1
"101 EAST 56 STREET","BK",11203,-73.9246,40.6547,1
"101 EAST BROADWAY","MN",10002,-73.9932,40.7136,0
"101 EAST TREMONT AVENUE","BX",10453,-73.9073,40.8509,0
"101 FRANKLIN STREET","BK",11222,-73.9578,40.7294,0
"101 GREENPOINT AVENUE","BK",11222,-73.9562,40.7303,0
"101 HAVEMEYER STREET","BK",11211,-73.9562,40.7132,0
"101 HIMROD STREET","BK",11221,-73.9237,40.6965,0
"101 JAVA STREET","BK",11222,-73.9569,40.7316,0
"101 KINGSTON AVENUE","BK",11213,-73.9412,40.6765,0
"101 LAFAYETTE AVENUE","BK",11217,-73.974,40.6875,0
"101 LEXINGTON AVENUE","MN",10016,-73.9825,40.7421,0
"101 LINCOLN ROAD","BK",11225,-73.9596,40.6613,0
"101 MAC DOUGAL STREET","MN",10012,-74.001,40.7297,0
"101 MARINE AVENUE","BK",11209,-74.036,40.6177,0
"101 MONTROSE AVENUE","BK",11206,-73.9456,40.7073,0
"101 NASSAU AVENUE","BK",11222,-73.9502,40.7242,0
"101 OCEAN PARKWAY","BK",11218,-73.9742,40.648,0
"101 ORCHARD STREET","MN",10002,-73.9902,40.7187,0
"101 POST AVENUE","MN",10034,-73.9206,40.864,0
"101 PROSPECT PARK WEST","BK",11215,-73.9753,40.6669,0
"101 QUINCY STREET","BK",11238,-73.9571,40.6864,0
"101 RIDGEWOOD AVENUE","BK",11208,-73.8852,40.683,0
"101 RIVINGTON STREET","MN",10002,-73.9883,40.7198,0
"101 ROGERS AVENUE","BK",11216,-73.9526,40.6741,0
"101 RUSSELL STREET","BK",11222,-73.9445,40.7241,0
"101 SOUTH OXFORD STREET","BK",11217,-73.9732,40.6866,0
"101 ST MARKS PLACE","MN",10009,-73.9843,40.7274,0
"101 ST NICHOLAS AVENUE","BK",11237,-73.9185,40.706,1
"101 STANTON STREET","MN",10002,-73.988,40.7212,0
"101 STARR STREET","BK",11237,-73.926,40.7025,0
"101 STATE STREET","BK",11201,-73.9954,40.6915,0
"101 TROUTMAN STREET","BK",11206,-73.9303,40.6993,0
"101 VERMILYEA AVENUE","MN",10034,-73.9222,40.8659,0
"101 WADSWORTH AVENUE","MN",10033,NA,NA,0
"101 WELDON STREET","BK",11208,-73.8715,40.6803,0
"101 WEST 104 STREET","MN",10025,-73.9639,40.7982,0
"101 WEST 12 STREET","MN",10011,-73.998,40.7364,0
"101 WEST 130 STREET","MN",10037,-73.9435,40.8112,0
"101 WEST 138 STREET","MN",10030,-73.9398,40.8164,0
"101 WEST 69 STREET","MN",10023,-73.9803,40.7757,0
"101 WEST 70 STREET","MN",10023,-73.9798,40.7764,0
"101 WEST 71 STREET","MN",10023,-73.9794,40.777,0
"101 WEST 72 STREET","MN",10023,-73.9789,40.7778,1
"101 WEST 73 STREET","MN",10023,-73.9784,40.7784,0
"101 WEST 77 STREET","MN",10024,-73.9765,40.7809,0
"101 WEST 85 STREET","MN",10024,-73.9729,40.7862,0
"101 WEST 86 STREET","MN",10024,-73.9721,40.7869,0
"101 WEST 87 STREET","MN",10024,NA,NA,0
"101 WEST END AVENUE","MN",10069,-73.9884,40.7751,0
"101 WOODRUFF AVENUE","BK",11226,-73.9628,40.6539,0
"101-01 BOOTH STREET","QN",11375,-73.8526,40.7253,0
"101-05 39 AVENUE","QN",11368,-73.8647,40.7504,0
"101-06 43 AVENUE","QN",11368,-73.8634,40.7468,0
"101-06 67 DRIVE","QN",11375,-73.8519,40.725,0
"101-07 39 AVENUE","QN",11368,-73.8646,40.7505,0
"101-09 39 AVENUE","QN",11368,-73.8645,40.7505,0
"101-11 86 AVENUE","QN",11418,-73.8465,40.6963,0
"101-12 46 AVENUE","QN",11368,-73.8625,40.7454,0
"101-14 39 AVENUE","QN",11368,-73.8642,40.7501,0
"101-16 31 AVENUE","QN",11369,-73.8675,40.7611,0
"101-16 39 AVENUE","QN",11368,-73.8641,40.7501,0
"101-16 86 AVENUE","QN",11418,-73.8461,40.696,0
"101-17 MARTENSE AVENUE","QN",11368,-73.8577,40.7397,0
"101-19 MARTENSE AVENUE","QN",11368,-73.8577,40.7397,0
"101-21 MARTENSE AVENUE","QN",11368,-73.8576,40.7397,0
"101-21 ROCKAWAY BOULEVARD","QN",11417,-73.8382,40.68,0
"101-24 QUEENS BOULEVARD","QN",11375,-73.8521,40.7258,0
"101-33 108 STREET","QN",11419,-73.8345,40.6864,0
"101-43 95 STREET","QN",11416,-73.8443,40.6834,0
"101-66 115 STREET","QN",11419,-73.8286,40.6872,0
"101-66 125 STREET","QN",11419,-73.8202,40.6896,1
"1010 3 AVENUE","MN",10065,-73.9663,40.7625,0
"1010 57 STREET","BK",11219,-74.0032,40.6342,1
"1010 DORCHESTER ROAD","BK",11218,-73.9678,40.6373,0
"1010 EAST TREMONT AVENUE","BX",10460,-73.8813,40.8403,0
"1010 EASTERN PARKWAY","BK",11213,-73.9351,40.6686,0
"1010 HEGEMAN AVENUE","BK",11208,-73.8755,40.6667,0
"1010 HOE AVENUE","BX",10459,-73.8902,40.8236,0
"1010 LINCOLN PLACE","BK",11213,-73.9431,40.6701,0
"1010 PRESIDENT STREET","BK",11225,-73.9584,40.6686,0
"1010 RUTLAND ROAD","BK",11212,-73.926,40.6626,1
"1011 AVENUE O","BK",11230,-73.9634,40.6127,1
"1011 CARROLL PLACE","BX",10456,-73.9197,40.83,0
"1011 FULTON STREET","BK",11238,-73.9615,40.6825,0
"1011 OCEAN AVENUE","BK",11226,-73.9583,40.6376,0
"1011 PACIFIC STREET","BK",11238,-73.9604,40.6797,0
"1011 RUTLAND ROAD","BK",11212,-73.9262,40.6631,1
"1011 SENECA AVENUE","QN",11385,-73.901,40.6991,0
"1011 SHERIDAN AVENUE","BX",10456,-73.9198,40.8296,0
"1011 WASHINGTON AVENUE","BX",10456,-73.91,40.8265,0
"1012 AMSTERDAM AVENUE","MN",10025,-73.9643,40.8029,0
"1012 AVENUE K","BK",11230,-73.965,40.6221,0
"1012 MANHATTAN AVENUE","BK",11222,-73.9545,40.7335,0
"1012 OCEAN AVENUE","BK",11226,-73.959,40.6374,0
"1012 WILLOUGHBY AVENUE","BK",11221,-73.9285,40.6989,0
"1013 63 STREET","BK",11219,-74.0063,40.6311,0
"1013 AVENUE J","BK",11230,-73.9656,40.6251,0
"1013 BROADWAY","BK",11221,-73.9327,40.6959,0
"1013 EAST 13 STREET","BK",11230,-73.9629,40.6245,0
"1013 PACIFIC STREET","BK",11238,-73.9603,40.6796,0
"1013 PUTNAM AVENUE","BK",11221,-73.9204,40.6877,0
"1014 45 STREET","BK",11219,-73.9961,40.6408,1
"1014 55 STREET","BK",11219,-74.0018,40.6352,0
"1014 AVENUE J","BK",11230,-73.9655,40.6245,0
"1014 AVENUE N","BK",11230,-73.9637,40.6149,0
"1014 BRYANT AVENUE","BX",10459,-73.8887,40.8287,0
"1014 CLARKSON AVENUE","BK",11212,-73.9242,40.6581,0
"1014 EASTERN PARKWAY","BK",11213,-73.9349,40.6685,1
"1014 GERARD AVENUE","BX",10452,-73.9226,40.8308,0
"1014 PARK PLACE","BK",11213,-73.9439,40.6728,1
"1015 56 STREET","BK",11219,-74.0023,40.6349,0
"1015 AVENUE N","BK",11230,-73.9638,40.6154,0
"1015 BOYNTON AVENUE","BX",10472,-73.8775,40.8242,0
"1015 EAST 167 STREET","BX",10459,-73.8892,40.827,1
"1015 FOX STREET","BX",10459,-73.8942,40.8242,0
"1015 GERARD AVENUE","BX",10452,-73.9233,40.8309,0
"1015 GRAND CONCOURSE","BX",10452,-73.9214,40.8303,0
"1015 LEGGETT AVENUE","BX",10455,-73.8994,40.8142,0
"1015 PUTNAM AVENUE","BK",11221,-73.9202,40.6877,0
"1015 SENECA AVENUE","QN",11385,-73.9009,40.6991,0
"1015 SOUTHERN BOULEVARD","BX",10459,-73.8922,40.8232,1
"1015 WASHINGTON AVENUE","BK",11225,-73.9609,40.6649,0
"1016 50 STREET","BK",11219,-73.9989,40.6379,0
"1016 57 STREET","BK",11219,-74.0031,40.6341,0
"1016 EAST 174 STREET","BX",10460,-73.8838,40.8358,0
"1016 PRESIDENT STREET","BK",11225,-73.958,40.6685,0
"1016 SENECA AVENUE","QN",11385,-73.9011,40.6988,0
"1016 UNION STREET","BK",11225,-73.9586,40.6696,0
"1017 42 STREET","BK",11219,-73.994,40.6428,0
"1017 MANHATTAN AVENUE","BK",11222,-73.9551,40.7336,0
"1017 TRINITY AVENUE","BX",10456,-73.9051,40.8257,0
"1018 45 STREET","BK",11219,-73.996,40.6408,0
"1018 57 STREET","BK",11219,-74.003,40.634,0
"1018 BEDFORD AVENUE","BK",11205,-73.9556,40.6901,1
"1018 CYPRESS AVENUE","QN",11385,-73.9023,40.6975,0
"1018 EASTERN PARKWAY","BK",11213,-73.9346,40.6685,0
"1018 FOX STREET","BX",10459,-73.8937,40.8242,0
"1018 HOE AVENUE","BX",10459,-73.8902,40.8238,0
"1018 NEW YORK AVENUE","BK",11203,-73.9467,40.6484,1
"1018 PARK PLACE","BK",11213,-73.9438,40.6728,0
"1018 SUMMIT AVENUE","BX",10452,-73.9296,40.8336,0
"1019 MANHATTAN AVENUE","BK",11222,-73.9551,40.7338,0
"1019 PUTNAM AVENUE","BK",11221,-73.9201,40.6877,0
"1019 TRINITY AVENUE","BX",10456,-73.905,40.8258,0
"102 2 AVENUE","MN",10003,-73.9884,40.7272,0
"102 8 AVENUE","MN",10011,-74.0015,40.7406,0
"102 ALBEMARLE ROAD","BK",11218,-73.9795,40.6449,0
"102 AVENUE C","MN",10009,-73.9787,40.7239,0
"102 AVENUE S","BK",11223,-73.9818,40.6005,0
"102 BALTIC STREET","BK",11201,-74.0005,40.688,1
"102 BARD AVENUE","SI",10310,-74.1087,40.6419,0
"102 BAY RIDGE AVENUE","BK",11220,-74.0322,40.6374,1
"102 BAYARD STREET","MN",10013,-73.9997,40.7163,0
"102 BEDFORD AVENUE","BK",11249,-73.9553,40.7204,0
"102 BERKELEY PLACE","BK",11217,-73.9771,40.6757,0
"102 CHARLTON STREET","MN",10014,-74.0081,40.7272,0
"102 CONVENT AVENUE","MN",10027,-73.9529,40.8169,0
"102 DIAMOND STREET","BK",11222,-73.947,40.7263,0
"102 EAGLE STREET","BK",11222,-73.9568,40.7348,1
"102 EAST 103 STREET","MN",10029,-73.9492,40.7907,0
"102 EAST 22 STREET","MN",10010,-73.9865,40.7391,0
"102 EAST 30 STREET","MN",10016,-73.9829,40.7442,0
"102 EAST 31 STREET","MN",10016,-73.9824,40.7449,0
"102 EAST 52 STREET","BK",11203,-73.9295,40.6588,0
"102 EAST 7 STREET","MN",10009,-73.9851,40.7265,1
"102 GRATTAN STREET","BK",11237,-73.929,40.7059,0
"102 GREENPOINT AVENUE","BK",11222,-73.9568,40.7297,0
"102 GREENWICH AVENUE","MN",10011,-74.0018,40.7382,0
"102 HOWARD AVENUE","BK",11233,-73.9207,40.6853,0
"102 INDIA STREET","BK",11222,-73.9562,40.732,1
"102 LENOX ROAD","BK",11226,-73.9558,40.6535,0
"102 LEXINGTON AVENUE","MN",10016,-73.9831,40.7423,0
"102 MACON STREET","BK",11216,-73.9469,40.6812,0
"102 MARTENSE STREET","BK",11226,-73.9554,40.6512,0
"102 MARTIN L KING PLACE","BK",11206,-73.9488,40.6967,0
"102 MOTT STREET","MN",10013,-73.9971,40.7174,0
"102 NORFOLK STREET","MN",10002,-73.9869,40.7187,0
"102 NORTH 7 STREET","BK",11249,-73.9602,40.7191,0
"102 NORTH 8 STREET","BK",11249,-73.9595,40.7196,0
"102 PATCHEN AVENUE","BK",11221,-73.9274,40.6884,1
"102 PIERREPONT STREET","BK",11201,-73.9935,40.6951,0
"102 POWERS STREET","BK",11211,-73.9468,40.7119,0
"102 RALPH AVENUE","BK",11221,-73.9237,40.6865,1
"102 ROGERS AVENUE","BK",11216,-73.9533,40.6732,1
"102 SOUTH 8 STREET","BK",11249,-73.9652,40.7094,0
"102 WEST 109 STREET","MN",10025,-73.9622,40.8012,0
"102 WEST 114 STREET","MN",10026,-73.9513,40.8007,0
"102 WEST 123 STREET","MN",10027,-73.9471,40.8065,0
"102 WEST 129 STREET","MN",10027,-73.944,40.8103,0
"102 WEST 132 STREET","MN",10027,-73.9429,40.8122,0
"102 WEST 134 STREET","MN",10030,-73.9421,40.8135,0
"102 WEST 137 STREET","MN",10030,-73.9406,40.8154,0
"102 WEST 138 STREET","MN",10030,-73.9401,40.8161,0
"102 WEST 142 STREET","MN",10030,-73.9384,40.8186,0
"102 WEST 183 STREET","BX",10453,-73.909,40.86,0
"102 WEST 74 STREET","MN",10023,-73.9782,40.7786,0
"102 WEST 76 STREET","MN",10023,-73.9774,40.7799,0
"102 WEST 79 STREET","MN",10024,-73.976,40.7819,0
"102 WEST 80 STREET","MN",10024,-73.9756,40.7826,0
"102 WEST 85 STREET","MN",10024,-73.9732,40.7858,0
"102 WEST 86 STREET","MN",10024,-73.9726,40.7864,1
"102 WEST 87 STREET","MN",10024,-73.9721,40.7871,0
"102-01 185 STREET","QN",11423,-73.7722,40.707,0
"102-01 186 STREET","QN",11423,-73.7711,40.7068,0
"102-01 32 AVENUE","QN",11369,-73.8668,40.7596,0
"102-02 185 STREET","QN",11423,-73.7726,40.7065,0
"102-02 186 STREET","QN",11423,-73.7717,40.7067,0
"102-02 QUEENS BOULEVARD","QN",11375,-73.8518,40.7256,0
"102-04 184 STREET","QN",11423,-73.7736,40.7067,0
"102-05 86 AVENUE","QN",11418,-73.8456,40.6964,1
"102-10 66 ROAD","QN",11375,-73.8508,40.7283,0
"102-12 65 AVENUE","QN",11375,-73.8519,40.7305,0
"102-13 CORONA AVENUE","QN",11368,-73.8612,40.7445,1
"102-17 64 AVENUE","QN",11375,-73.8527,40.7316,0
"102-20 67 DRIVE","QN",11375,-73.8505,40.7263,0
"102-20 RADCLIFF AVENUE","QN",11368,-73.8591,40.7421,0
"102-21 63 ROAD","QN",11375,-73.854,40.7334,0
"102-24 85 DRIVE","QN",11418,-73.8451,40.6969,0
"102-25 67 DRIVE","QN",11375,-73.8507,40.7267,0
"102-25 67 ROAD","QN",11375,-73.8505,40.7276,0
"102-26 86 AVENUE","QN",11418,-73.8447,40.6963,0
"102-26 CORONA AVENUE","QN",11368,-73.8608,40.744,0
"102-28 159 ROAD","QN",11414,-73.8303,40.6597,0
"102-28 CORONA AVENUE","QN",11368,-73.8607,40.744,0
"102-30 67 AVENUE","QN",11375,-73.8506,40.7278,0
"102-30 QUEENS BOULEVARD","QN",11375,-73.8512,40.7251,0
"102-31 184 STREET","QN",11423,-73.7728,40.706,0
"102-33 91 AVENUE","QN",11418,-73.8426,40.6923,0
"102-34 184 STREET","QN",11423,-73.7733,40.7059,0
"102-35 64 ROAD","QN",11375,-73.8521,40.7318,0
"102-40 62 AVENUE","QN",11375,-73.8545,40.7359,0
"102-40 67 DRIVE","QN",11375,-73.8498,40.7265,0
"102-40 67 ROAD","QN",11375,-73.8507,40.727,0
"102-43 CORONA AVENUE","QN",11368,-73.8602,40.7444,0
"102-45 62 ROAD","QN",11375,-73.8543,40.7357,0
"102-45 JAMAICA AVENUE","QN",11418,-73.8437,40.6954,0
"102-50 62 ROAD","QN",11375,-73.854,40.7353,0
"102-55 67 DRIVE","QN",11375,-73.8498,40.727,0
"102-58 43 AVENUE","QN",11368,-73.8608,40.7475,0
"1020 3 AVENUE","MN",10065,-73.9662,40.7627,0
"1020 45 STREET","BK",11219,-73.9959,40.6407,0
"1020 AMSTERDAM AVENUE","MN",10025,-73.964,40.8034,0
"1020 BEDFORD AVENUE","BK",11205,-73.9556,40.69,1
"1020 BOYNTON AVENUE","BX",10472,-73.877,40.8245,0
"1020 GERARD AVENUE","BX",10452,-73.9225,40.8311,0
"1020 GRAND CONCOURSE","BX",10451,-73.9201,40.8302,0
"1020 MANHATTAN AVENUE","BK",11222,-73.9545,40.7339,0
"1020 NEW YORK AVENUE","BK",11203,-73.9467,40.6484,1
"1020 PACIFIC STREET","BK",11238,-73.9594,40.679,1
"1020 WALTON AVENUE","BX",10452,-73.9217,40.8308,0
"1020 WILLOWBROOK ROAD","SI",10314,-74.1395,40.6026,0
"1020 WINTHROP STREET","BK",11212,-73.9254,40.6602,1
"1021 8 AVENUE","BK",11215,-73.9799,40.6645,0
"1021 MANHATTAN AVENUE","BK",11222,-73.9551,40.7339,1
"1022 3 AVENUE","MN",10065,-73.9661,40.7627,0
"1022 EAST 36 STREET","BK",11210,-73.9412,40.626,0
"1022 HOE AVENUE","BX",10459,-73.8902,40.8239,0
"1022 NEW YORK AVENUE","BK",11203,-73.9467,40.6483,1
"1022 PACIFIC STREET","BK",11238,-73.9594,40.679,0
"1022 REV JAMES POLITE AVE","BX",10459,-73.8987,40.8241,0
"1023 BROADWAY","BK",11221,-73.9325,40.6958,0
"1023 CARROLL STREET","BK",11225,-73.9559,40.6676,0
"1023 LONGWOOD AVENUE","BX",10459,-73.8963,40.8167,0
"1023 PUTNAM AVENUE","BK",11221,-73.92,40.6877,0
"1023 REV JAMES POLITE AVE","BX",10459,-73.8991,40.824,0
"1024 56 STREET","BK",11219,-74.0023,40.6345,0
"1024 EAST 14 STREET","BK",11230,-73.9625,40.6244,0
"1024 GLENMORE AVENUE","BK",11208,-73.8724,40.6763,0
"1024 NEW YORK AVENUE","BK",11203,-73.9467,40.6482,1
"1024 WALTON AVENUE","BX",10452,-73.9216,40.831,0
"1025 BOYNTON AVENUE","BX",10472,-73.8776,40.8246,0
"1025 EAST 14 STREET","BK",11230,-73.9619,40.6243,0
"1025 ESPLANADE","BX",10461,-73.8598,40.8554,0
"1025 GERARD AVENUE","BX",10452,-73.9231,40.8312,0
"1025 LONGWOOD AVENUE","BX",10459,-73.8962,40.8167,0
"1025 MANHATTAN AVENUE","BK",11222,-73.9552,40.734,1
"1025 ST JOHNS PLACE","BK",11213,-73.9441,40.6716,0
"1026 1 AVENUE","MN",10022,-73.9629,40.7578,0
"1026 2 AVENUE","MN",10022,-73.9663,40.7574,0
"1026 56 STREET","BK",11219,-74.0023,40.6345,0
"1026 66 STREET","BK",11219,-74.0083,40.6288,0
"1026 CATON AVENUE","BK",11218,-73.9699,40.6486,0
"1026 PRESIDENT STREET","BK",11225,-73.9578,40.6684,0
"1026 ST NICHOLAS AVENUE","MN",10032,-73.9394,40.8354,0
"1026 WILLMOHR STREET","BK",11212,-73.9196,40.6555,0
"1027 CLARKSON AVENUE","BK",11212,-73.9238,40.659,0
"1027 PUTNAM AVENUE","BK",11221,-73.9198,40.6877,1
"1027 SENECA AVENUE","QN",11385,-73.9005,40.6988,0
"1027 SOUTHERN BOULEVARD","BX",10459,-73.8922,40.8236,1
"1027 WALTON AVENUE","BX",10452,-73.9221,40.8311,0
"1028 2 AVENUE","MN",10022,-73.9663,40.7575,0
"1028 3 AVENUE","MN",10065,-73.966,40.7628,0
"1028 66 STREET","BK",11219,-74.0082,40.6287,0
"1028 AMSTERDAM AVENUE","MN",10025,-73.9639,40.8036,0
"1028 NEW YORK AVENUE","BK",11203,-73.9467,40.648,0
"1029 53 STREET","BK",11219,-74.0001,40.6364,1
"1029 HALL PLACE","BX",10459,-73.8982,40.8243,0
"1029 MANHATTAN AVENUE","BK",11222,-73.9552,40.734,0
"1029 SENECA AVENUE","QN",11385,-73.9004,40.6988,0
"103 2 AVENUE","MN",10003,-73.9888,40.7276,0
"103 3 AVENUE","BK",11217,-73.982,40.683,0
"103 3 PLACE","BK",11231,-73.9972,40.6789,0
"103 ALLEN STREET","MN",10002,-73.9909,40.719,0
"103 AVENUE A","MN",10009,-73.984,40.7259,0
"103 BAY 37 STREET","BK",11214,-73.9907,40.5965,0
"103 CHARLES STREET","MN",10014,-74.0056,40.7347,0
"103 DIAMOND STREET","BK",11222,-73.9473,40.7259,0
"103 DITMAS AVENUE","BK",11218,-73.9778,40.6357,0
"103 DIVISION AVENUE","BK",11249,-73.9646,40.7077,0
"103 EAST 10 STREET","MN",10003,-73.9885,40.7307,0
"103 EAST 100 STREET","MN",10029,-73.9502,40.7891,0
"103 EAST 102 STREET","MN",10029,-73.9493,40.7904,0
"103 EAST 2 STREET","MN",10009,-73.9875,40.7235,0
"103 EAST 59 STREET","BK",11203,-73.9214,40.6517,0
"103 EAST 63 STREET","MN",10065,-73.9671,40.7653,0
"103 EAST 86 STREET","MN",10028,-73.9565,40.7802,0
"103 FREEMAN STREET","BK",11222,-73.9576,40.7344,0
"103 GRATTAN STREET","BK",11237,-73.9291,40.7063,0
"103 GREENPOINT AVENUE","BK",11222,-73.9561,40.7303,0
"103 GREENWICH AVENUE","MN",10014,-74.0021,40.7378,0
"103 HAWKSTONE STREET","BX",10452,-73.9131,40.8429,0
"103 JAVA STREET","BK",11222,-73.9568,40.7316,0
"103 LEXINGTON AVENUE","MN",10016,-73.9825,40.7421,0
"103 MAC DOUGAL STREET","MN",10012,-74.0011,40.7298,0
"103 NORTH 3 STREET","BK",11249,-73.9616,40.7169,0
"103 NORTH 7 STREET","BK",11249,-73.9596,40.7193,0
"103 NORTH 9 STREET","BK",11249,-73.9583,40.7203,1
"103 QUINCY STREET","BK",11238,-73.957,40.6865,0
"103 SMITH STREET","BK",11201,-73.9893,40.6881,0
"103 ST MARKS PLACE","MN",10009,-73.9842,40.7274,0
"103 STARR STREET","BK",11237,-73.926,40.7026,0
"103 SULLIVAN STREET","MN",10012,-74.0028,40.7256,0
"103 TROUTMAN STREET","BK",11206,-73.9303,40.6994,0
"103 VAN BUREN STREET","BK",11221,-73.9417,40.6905,0
"103 VERMILYEA AVENUE","MN",10034,-73.922,40.866,0
"103 WEST 104 STREET","MN",10025,-73.964,40.7983,0
"103 WEST 105 STREET","MN",10025,-73.9637,40.7989,1
"103 WEST 127 STREET","MN",10027,-73.945,40.8095,0
"103 WEST 128 STREET","MN",10027,-73.9445,40.8101,0
"103 WEST 137 STREET","MN",10030,-73.9403,40.8158,1
"103 WEST 14 STREET","MN",10011,-73.9972,40.7379,0
"103 WEST 25 STREET","MN",10010,-73.9918,40.7448,0
"103 WEST 69 STREET","MN",10023,-73.9804,40.7758,0
"103 WEST 70 STREET","MN",10023,-73.9799,40.7764,0
"103 WEST 72 STREET","MN",10023,-73.979,40.7778,0
"103 WEST 73 STREET","MN",10023,-73.9784,40.7784,0
"103 WEST 74 STREET","MN",10023,-73.9782,40.7791,0
"103 WEST 77 STREET","MN",10024,-73.9766,40.7809,0
"103 WEST 80 STREET","MN",10024,-73.9753,40.7831,0
"103 WEST 86 STREET","MN",10024,-73.9723,40.7868,0
"103 WYCKOFF STREET","BK",11201,-73.9896,40.6858,0
"103-02 117 STREET","QN",11419,-73.8268,40.6872,0
"103-08 42 AVENUE","QN",11368,-73.862,40.7477,0
"103-10 QUEENS BOULEVARD","QN",11375,-73.8508,40.7246,0
"103-11 68 DRIVE","QN",11375,-73.8507,40.7243,0
"103-13 51 AVENUE","QN",11368,-73.8585,40.7427,0
"103-18 39 AVENUE","QN",11368,-73.8624,40.7507,0
"103-19 68 ROAD","QN",11375,-73.8495,40.7255,0
"103-25 121 STREET","QN",11419,-73.8223,40.6879,0
"103-25 68 AVENUE","QN",11375,-73.85,40.7262,0
"103-26 68 AVENUE","QN",11375,-73.8496,40.7258,0
"103-26 68 ROAD","QN",11375,-73.8491,40.7252,0
"103-27 114 STREET","QN",11419,-73.8285,40.686,0
"103-34 42 AVENUE","QN",11368,-73.8611,40.748,0
"103-35 120 STREET","QN",11419,-73.8232,40.6874,0
"103-35 97 STREET","QN",11417,-73.8425,40.6819,0
"103-39 116 STREET","QN",11419,-73.8267,40.6862,1
"103-44 68 AVENUE","QN",11375,-73.8491,40.726,0
"103-45 97 STREET","QN",11417,-73.8424,40.6816,0
"103-55 97 STREET","QN",11417,-73.8422,40.6814,0
"1030 BOYNTON AVENUE","BX",10472,-73.8771,40.8249,0
"1030 CARROLL STREET","BK",11225,-73.9571,40.6674,0
"1030 CAULDWELL AVENUE","BX",10456,-73.9054,40.826,0
"1030 EAST 14 STREET","BK",11230,-73.9625,40.6243,0
"1030 NELSON AVENUE","BX",10452,-73.9278,40.8338,0
"1030 OCEAN AVENUE","BK",11226,-73.959,40.6371,0
"1030 PARK PLACE","BK",11213,-73.9435,40.6727,0
"1030 WOODYCREST AVENUE","BX",10452,-73.9272,40.8332,0
"1031 3 AVENUE","MN",10065,-73.9653,40.7628,1
"1031 53 STREET","BK",11219,-74,40.6364,0
"1031 LORIMER STREET","BK",11222,-73.9536,40.7263,0
"1031 SENECA AVENUE","QN",11385,-73.9003,40.6987,0
"1031 SOUTHERN BOULEVARD","BX",10459,-73.8922,40.8237,0
"1033 3 AVENUE","MN",10065,-73.9651,40.763,0
"1033 AVENUE ST JOHN","BX",10455,-73.901,40.8127,0
"1033 BOSTON ROAD","BX",10456,-73.9067,40.8264,0
"1033 LEXINGTON AVENUE","MN",10021,-73.9609,40.7718,0
"1033 OCEAN AVENUE","BK",11226,-73.9582,40.6372,0
"1033 PACIFIC STREET","BK",11238,-73.9594,40.6794,0
"1033 SENECA AVENUE","QN",11385,-73.9002,40.6987,1
"1034 AVENUE ST JOHN","BX",10455,-73.9015,40.8126,0
"1035 2 AVENUE","MN",10022,-73.9668,40.7578,0
"1035 45 STREET","BK",11219,-73.9951,40.6408,0
"1035 53 STREET","BK",11219,-74,40.6364,0
"1035 BOYNTON AVENUE","BX",10472,-73.8777,40.8249,0
"1035 GRAND CONCOURSE","BX",10452,-73.9211,40.8307,0
"1035 HALL PLACE","BX",10459,-73.8981,40.8245,0
"1035 MANHATTAN AVENUE","BK",11222,-73.9552,40.7342,1
"1035 SENECA AVENUE","QN",11385,-73.9002,40.6986,0
"1035 UNION STREET","BK",11225,-73.959,40.6701,0
"1035 WASHINGTON AVENUE","BK",11225,-73.9607,40.6644,0
"1035 WILLMOHR STREET","BK",11212,-73.9199,40.6559,0
"1035 WOODYCREST AVENUE","BX",10452,-73.9275,40.8337,0
"1036 INTERVALE AVENUE","BX",10459,-73.8965,40.8244,0
"1036 LEXINGTON AVENUE","MN",10021,-73.9614,40.772,0
"1037 51 STREET","BK",11219,-73.9986,40.6374,0
"1037 FLUSHING AVENUE","BK",11237,-73.9309,40.7041,1
"1037 OGDEN AVENUE","BX",10452,-73.9291,40.834,1
"1038 ANDERSON AVENUE","BX",10452,-73.9259,40.8332,0
"1038 BOSTON ROAD","BX",10456,-73.9062,40.826,0
"1038 FAILE STREET","BX",10459,-73.8893,40.8244,1
"1038 FLUSHING AVENUE","BK",11237,-73.9295,40.7042,0
"1038 LOWELL STREET","BX",10459,-73.8874,40.8257,0
"1038 OCEAN AVENUE","BK",11226,-73.9589,40.6367,0
"1038 SOUTHERN BOULEVARD","BX",10459,-73.8915,40.8239,0
"1038 UNION STREET","BK",11225,-73.9578,40.6694,0
"1038 WHITE PLAINS ROAD","BX",10472,-73.8598,40.8272,1
"1039 BERGEN STREET","BK",11216,-73.9521,40.6764,0
"1039 INTERVALE AVENUE","BX",10459,-73.8972,40.8245,0
"1039 OCEAN AVENUE","BK",11226,-73.9582,40.6371,0
"1039 SIMPSON STREET","BX",10459,-73.8932,40.8243,0
"1039 WILLMOHR STREET","BK",11212,-73.9196,40.6561,0
"104 2 AVENUE","MN",10003,-73.9882,40.7274,0
"104 2 PLACE","BK",11231,-73.9976,40.6793,0
"104 3 AVENUE","MN",10003,-73.988,40.7326,0
"104 6 AVENUE","BK",11217,-73.9758,40.6792,0
"104 AUDUBON AVENUE","MN",10032,-73.9375,40.8423,0
"104 BAYARD STREET","MN",10013,-73.9997,40.7163,0
"104 BEDFORD AVENUE","BK",11249,-73.9554,40.7204,0
"104 BOND STREET","BK",11217,-73.9852,40.6865,0
"104 CLAY STREET","BK",11222,-73.954,40.7365,1
"104 EAST 116 STREET","MN",10029,-73.9431,40.7989,0
"104 EAST 17 STREET","MN",10003,-73.9885,40.7361,0
"104 EAST 196 STREET","BX",10468,-73.894,40.8682,0
"104 EAST 30 STREET","MN",10016,-73.9829,40.7442,0
"104 EAST 37 STREET","MN",10016,-73.9795,40.7485,0
"104 EAST 4 STREET","MN",10003,-73.9885,40.7256,0
"104 EAST 7 STREET","MN",10009,-73.985,40.7264,0
"104 EAST 81 STREET","MN",10028,-73.959,40.7765,0
"104 EAST 85 STREET","MN",10028,-73.9573,40.7791,0
"104 EAST 98 STREET","MN",10029,-73.9512,40.7875,0
"104 ELLIOT PLACE","BX",10452,-73.9163,40.8387,0
"104 EMPIRE BOULEVARD","BK",11225,-73.9587,40.6632,0
"104 FORSYTH STREET","MN",10002,-73.9925,40.7184,0
"104 FRANKLIN STREET","MN",10013,-74.0056,40.7186,0
"104 FT GREENE PLACE","BK",11217,-73.9767,40.6864,0
"104 GREENE STREET","MN",10012,-73.9994,40.7244,0
"104 GREENPOINT AVENUE","BK",11222,-73.9567,40.7297,0
"104 HICKS STREET","BK",11201,-73.9946,40.6985,0
"104 INDIA STREET","BK",11222,-73.9561,40.732,0
"104 JACKSON STREET","BK",11211,-73.9473,40.7162,0
"104 LENOX AVENUE","MN",10026,-73.9496,40.8014,0
"104 LEXINGTON AVENUE","MN",10016,-73.983,40.7423,0
"104 LUQUER STREET","BK",11231,-74.0012,40.6777,0
"104 MAC DOUGAL STREET","MN",10012,-74.0007,40.7293,0
"104 MANHATTAN AVENUE","BK",11206,-73.9444,40.706,0
"104 PERRY STREET","MN",10014,-74.0056,40.735,0
"104 PULASKI STREET","BK",11206,-73.9472,40.6924,0
"104 RALPH AVENUE","BK",11221,-73.9237,40.6864,0
"104 RIVERSIDE DRIVE","MN",10024,-73.9809,40.7873,0
"104 ROGERS AVENUE","BK",11216,-73.9533,40.6731,0
"104 SCHOLES STREET","BK",11206,-73.9457,40.7083,0
"104 SUFFOLK STREET","MN",10002,-73.986,40.7186,0
"104 SULLIVAN STREET","MN",10012,-74.0032,40.7258,0
"104 TERRACE VIEW AVENUE","MN",10463,-73.9124,40.8766,0
"104 WASHINGTON AVENUE","BK",11205,-73.9676,40.6955,0
"104 WEST 114 STREET","MN",10026,-73.9514,40.8008,0
"104 WEST 138 STREET","MN",10030,-73.9402,40.8161,0
"104 WEST 174 STREET","BX",10453,-73.9181,40.8468,0
"104 WEST 190 STREET","BX",10468,-73.9037,40.8653,0
"104 WEST 71 STREET","MN",10023,-73.9798,40.7767,0
"104 WEST 75 STREET","MN",10023,-73.978,40.7794,0
"104 WEST 80 STREET","MN",10024,-73.9757,40.7827,0
"104 WEST 83 STREET","MN",10024,-73.9742,40.7846,0
"104 WEST 96 STREET","MN",10025,-73.9682,40.7929,0
"104-03 NORTHERN BOULEVARD","QN",11368,-73.8645,40.758,1
"104-09 ROOSEVELT AVENUE","QN",11368,-73.8615,40.7502,0
"104-14 116 STREET","QN",11419,-73.8269,40.6854,0
"104-15 116 STREET","QN",11419,-73.8264,40.6854,1
"104-15 35 AVENUE","QN",11368,-73.8638,40.7552,0
"104-16 34 AVENUE","QN",11368,-73.8636,40.7557,1
"104-18 116 STREET","QN",11419,-73.8269,40.6853,1
"104-18 42 AVENUE","QN",11368,-73.8603,40.7485,0
"104-20 115 STREET","QN",11419,-73.8277,40.6851,0
"104-20 38 AVENUE","QN",11368,-73.8617,40.7514,0
"104-20 39 AVENUE","QN",11368,-73.8613,40.7506,0
"104-20 46 AVENUE","QN",11368,-73.8591,40.7464,1
"104-20 68 DRIVE","QN",11375,-73.8487,40.7246,0
"104-20 QUEENS BOULEVARD","QN",11375,-73.8499,40.7233,0
"104-21 68 DRIVE","QN",11375,-73.849,40.7249,0
"104-23 CORONA AVENUE","QN",11368,-73.8577,40.7442,1
"104-24 90 AVENUE","QN",11418,-73.8414,40.693,0
"104-25 195 STREET","QN",11412,-73.7626,40.707,0
"104-28 117 STREET","QN",11419,-73.8258,40.6851,0
"104-30 39 AVENUE","QN",11368,-73.8609,40.7507,0
"104-34 CORONA AVENUE","QN",11368,-73.8575,40.7437,0
"104-35 102 STREET","QN",11417,-73.8379,40.6805,0
"104-36 38 AVENUE","QN",11368,-73.8611,40.7516,1
"104-38 38 AVENUE","QN",11368,-73.861,40.7516,0
"104-51 39 AVENUE","QN",11368,-73.8604,40.7514,0
"104-54 42 AVENUE","QN",11368,-73.859,40.7489,0
"104-69 43 AVENUE","QN",11368,-73.8583,40.7487,0
"104-76 38 AVENUE","QN",11368,-73.8598,40.7521,0
"104-80 42 AVENUE","QN",11368,-73.8583,40.7492,1
"1040 55 STREET","BK",11219,-74.0014,40.6349,0
"1040 BOYNTON AVENUE","BX",10472,-73.8771,40.8252,0
"1040 BUSHWICK AVENUE","BK",11221,-73.9212,40.6908,0
"1040 CLAY AVENUE","BX",10456,-73.9126,40.8283,0
"1040 GERARD AVENUE","BX",10452,-73.9224,40.8313,0
"1040 LEXINGTON AVENUE","MN",10021,-73.9612,40.7723,0
"1040 PARK PLACE","BK",11213,-73.9431,40.6727,0
"1041 BELMONT AVENUE","BK",11208,-73.8706,40.6745,0
"1041 GRANT AVENUE","BX",10456,-73.9174,40.83,0
"1041 MADISON AVENUE","MN",10075,-73.9616,40.7766,0
"1041 NELSON AVENUE","BX",10452,-73.9284,40.8339,0
"1041 ROGERS AVENUE","BK",11226,-73.9515,40.6447,1
"1042 45 STREET","BK",11219,-73.9956,40.6405,0
"1042 50 STREET","BK",11219,-73.9983,40.6376,0
"1042 BERGEN STREET","BK",11216,-73.9517,40.6759,1
"1042 CYPRESS AVENUE","QN",11385,-73.9016,40.6971,0
"1042 PUTNAM AVENUE","BK",11221,-73.9203,40.6872,0
"1042 SENECA AVENUE","QN",11385,-73.9004,40.6983,0
"1042 SOUTHERN BOULEVARD","BX",10459,-73.8915,40.824,0
"1042 UNION STREET","BK",11225,-73.9575,40.6693,0
"1043 50 STREET","BK",11219,-73.998,40.6379,0
"1043 BEDFORD AVENUE","BK",11216,-73.9546,40.6883,1
"1043 LEXINGTON AVENUE","MN",10021,-73.9608,40.7719,1
"1043 STERLING PLACE","BK",11213,-73.9439,40.6724,0
"1043 TELLER AVENUE","BX",10456,-73.914,40.8287,1
"1044 2 AVENUE","MN",10022,-73.9653,40.758,0
"1044 AVENUE ST JOHN","BX",10455,-73.9015,40.8123,0
"1044 CYPRESS AVENUE","QN",11385,-73.9015,40.6971,0
"1044 DECATUR STREET","BK",11207,-73.9102,40.6857,0
"1044 FINDLAY AVENUE","BX",10456,-73.9143,40.8289,0
"1044 FLUSHING AVENUE","BK",11237,-73.9293,40.7043,1
"1044 MADISON AVENUE","MN",10075,-73.9621,40.7768,0
"1045 5 AVENUE","MN",10028,-73.9603,40.7811,0
"1045 64 STREET","BK",11219,-74.0061,40.63,0
"1045 65 STREET","BK",11219,-74.0067,40.6295,0
"1045 BOYNTON AVENUE","BX",10472,-73.8777,40.8253,1
"1045 EAST 15 STREET","BK",11230,-73.9609,40.6241,0
"1045 EASTERN PARKWAY","BK",11213,-73.9336,40.6693,1
"1045 LEXINGTON AVENUE","MN",10021,-73.9608,40.772,0
"1045 OCEAN AVENUE","BK",11226,-73.9582,40.637,0
"1045 PARK AVENUE","MN",10028,-73.9567,40.7803,0
"1045 SHERMAN AVENUE","BX",10456,-73.9182,40.8304,0
"1045 ST JOHNS PLACE","BK",11213,-73.9436,40.6716,0
"1046 BERGEN STREET","BK",11216,-73.9515,40.6759,1
"1046 EAST 15 STREET","BK",11230,-73.9615,40.624,1
"1046 GREENE AVENUE","BK",11221,-73.9259,40.6911,0
"1046 HOE AVENUE","BX",10459,-73.8903,40.8246,0
"1047 53 STREET","BK",11219,-73.9997,40.6362,0
"1047 AVENUE ST JOHN","BX",10455,-73.9009,40.8125,0
"1047 BEDFORD AVENUE","BK",11216,-73.9546,40.6882,0
"1047 FLUSHING AVENUE","BK",11237,-73.9305,40.7043,0
"1047 HOE AVENUE","BX",10459,-73.8909,40.8246,1
"1047 KELLY STREET","BX",10459,-73.8961,40.8249,0
"1047 ROGERS AVENUE","BK",11226,-73.9515,40.6446,1
"1047 TELLER AVENUE","BX",10456,-73.914,40.8288,0
"1048 DECATUR STREET","BK",11207,-73.9102,40.6857,0
"1048 FINDLAY AVENUE","BX",10456,-73.9143,40.829,0
"1048 SHERIDAN AVENUE","BX",10456,-73.9185,40.8306,0
"1048 UNION STREET","BK",11225,-73.9573,40.6693,0
"1049 53 STREET","BK",11219,-73.9996,40.6362,0
"1049 BOYNTON AVENUE","BX",10472,-73.8778,40.8254,0
"1049 GLENMORE AVENUE","BK",11208,-73.8712,40.677,1
"1049 GRAND CONCOURSE","BX",10452,-73.9207,40.8313,0
"1049 HOE AVENUE","BX",10459,-73.8909,40.8247,1
"1049 KELLY STREET","BX",10459,-73.8961,40.825,0
"1049 MONTGOMERY STREET","BK",11213,-73.9298,40.6645,0
"1049 ROGERS AVENUE","BK",11226,-73.9515,40.6445,1
"1049 STERLING PLACE","BK",11213,-73.9438,40.6724,0
"105 3 AVENUE","BK",11217,-73.982,40.6829,0
"105 3 PLACE","BK",11231,-73.9971,40.6788,0
"105 AUDUBON AVENUE","MN",10032,-73.9369,40.842,1
"105 AVENUE B","MN",10009,-73.9811,40.7248,0
"105 AVENUE C","MN",10009,-73.9792,40.7241,1
"105 AVENUE P","BK",11204,-73.9842,40.6078,0
"105 BANK STREET","MN",10014,-74.007,40.7366,0
"105 BENNETT AVENUE","MN",10033,-73.9347,40.8537,0
"105 BERGEN STREET","BK",11201,-73.9893,40.6865,0
"105 BRIGHTON 11 STREET","BK",11235,-73.9573,40.58,0
"105 BUCKINGHAM ROAD","BK",11226,-73.9642,40.648,0
"105 CARLTON AVENUE","BK",11205,-73.9728,40.6946,0
"105 CENTRAL AVENUE","BK",11206,-73.929,40.7006,0
"105 CHARLES STREET","MN",10014,-74.0057,40.7347,0
"105 CLARKE PLACE EAST","BX",10452,-73.9169,40.8378,0
"105 CLINTON STREET","MN",10002,-73.9858,40.7182,0
"105 CORNELIA STREET","BK",11221,-73.9159,40.6901,0
"105 DAVIS AVENUE","SI",10310,-74.1097,40.6419,0
"105 EAST 10 STREET","MN",10003,-73.9883,40.7307,0
"105 EAST 102 STREET","MN",10029,-73.9492,40.7904,1
"105 EAST 122 STREET","MN",10035,-73.9397,40.8031,1
"105 EAST 15 STREET","MN",10003,-73.9891,40.7352,0
"105 EAST 177 STREET","BX",10453,-73.9077,40.8498,0
"105 EAST 19 STREET","MN",10003,-73.9874,40.7376,0
"105 EAST 198 STREET","BX",10468,-73.8914,40.8707,0
"105 EAST 2 STREET","MN",10009,-73.9875,40.7235,0
"105 EAST 24 STREET","MN",10010,-73.9852,40.7408,0
"105 EAST 86 STREET","BK",11236,-73.9196,40.6483,0
"105 EAST 88 STREET","MN",10128,-73.9555,40.7814,0
"105 EAST 96 STREET","BK",11212,-73.9239,40.6636,0
"105 ELLIOT PLACE","BX",10452,-73.916,40.839,0
"105 ENGERT AVENUE","BK",11222,-73.9464,40.7217,0
"105 FREEDOM AVENUE","SI",10314,-74.1634,40.597,0
"105 GATES AVENUE","BK",11238,-73.9643,40.6848,0
"105 GRAND AVENUE","BK",11205,-73.9639,40.6942,0
"105 GRATTAN STREET","BK",11237,-73.929,40.7063,0
"105 HAVEN AVENUE","MN",10032,-73.9421,40.8448,0
"105 HERKIMER STREET","BK",11216,-73.95,40.6799,0
"105 JAVA STREET","BK",11222,-73.9567,40.7316,0
"105 LEFFERTS PLACE","BK",11238,-73.9595,40.6813,0
"105 LINCOLN ROAD","BK",11225,-73.959,40.6614,0
"105 LUQUER STREET","BK",11231,-74.0011,40.6781,0
"105 MAC DOUGAL STREET","MN",10012,-74.001,40.7299,0
"105 MADISON STREET","MN",10002,-73.9951,40.7125,0
"105 NEWEL STREET","BK",11222,-73.9483,40.7259,0
"105 NORMAN AVENUE","BK",11222,-73.9511,40.7258,0
"105 NORTH 8 STREET","BK",11249,-73.9589,40.7198,0
"105 PINEHURST AVENUE","MN",10033,-73.9387,40.8518,0
"105 QUINCY STREET","BK",11238,-73.9569,40.6865,0
"105 RAVENHURST AVENUE","SI",10310,-74.1289,40.6239,0
"105 RIVERSIDE DRIVE","MN",10024,-73.9809,40.7874,0
"105 RUSSELL STREET","BK",11222,-73.9445,40.7242,0
"105 SOUTH 8 STREET","BK",11249,-73.9649,40.7099,0
"105 SUYDAM STREET","BK",11221,-73.9287,40.6984,0
"105 WEST 104 STREET","MN",10025,-73.9641,40.7983,1
"105 WEST 105 STREET","MN",10025,-73.9637,40.799,0
"105 WEST 113 STREET","MN",10026,-73.9515,40.8005,0
"105 WEST 120 STREET","MN",10027,-73.9483,40.805,0
"105 WEST 137 STREET","MN",10030,-73.9404,40.8158,0
"105 WEST 138 STREET","MN",10030,-73.94,40.8165,1
"105 WEST 17 STREET","MN",10011,-73.9958,40.7396,0
"105 WEST 55 STREET","MN",10019,-73.9786,40.7635,0
"105 WEST 72 STREET","MN",10023,-73.9791,40.7779,0
"105 WEST 73 STREET","MN",10023,-73.9786,40.7785,0
"105 WEST 75 STREET","MN",10023,-73.9778,40.7798,0
"105 WEST 77 STREET","MN",10024,-73.9767,40.781,0
"105 WEST 86 STREET","MN",10024,-73.9725,40.7869,0
"105 WINTHROP STREET","BK",11225,-73.9569,40.6569,0
"105 WOOSTER STREET","MN",10012,-74.0009,40.7249,0
"105-04 37 AVENUE","QN",11368,-73.8627,40.7535,0
"105-05 69 AVENUE","QN",11375,-73.8485,40.7243,0
"105-07 66 AVENUE","QN",11375,-73.8497,40.7301,0
"105-07 66 ROAD","QN",11375,-73.8492,40.7296,0
"105-10 62 ROAD","QN",11375,-73.8529,40.7356,0
"105-10 65 ROAD","QN",11375,-73.8502,40.7302,0
"105-40 62 ROAD","QN",11375,-73.8519,40.7359,0
"105-55 62 DRIVE","QN",11375,-73.8515,40.7358,0
"1050 AVENUE OF THE AMER","MN",10018,-73.9849,40.7532,0
"1050 BERGEN STREET","BK",11216,-73.9514,40.6759,1
"1050 CARROLL PLACE","BX",10456,-73.9191,40.8309,0
"1050 DECATUR STREET","BK",11207,-73.9101,40.6858,1
"1050 GREENE AVENUE","BK",11221,-73.9258,40.6911,0
"1050 HOE AVENUE","BX",10459,-73.8903,40.8247,0
"1050 LAFAYETTE AVENUE","BK",11221,-73.9298,40.6921,0
"1050 LOWELL STREET","BX",10459,-73.8869,40.8258,0
"1050 WHEELER AVENUE","BX",10472,-73.8791,40.8253,0
"1050 WILLMOHR STREET","BK",11212,-73.919,40.6559,0
"1051 COLLEGE AVENUE","BX",10456,-73.9153,40.8299,0
"1051 EASTERN PARKWAY","BK",11213,-73.9334,40.6694,0
"1051 ELDER AVENUE","BX",10472,-73.8787,40.8253,0
"1051 KELLY STREET","BX",10459,-73.8961,40.8251,1
"1051 OCEAN AVENUE","BK",11226,-73.9581,40.6368,0
"10515 SEAVIEW AVENUE","BK",11236,-73.8834,40.6382,0
"1052 EAST 232 STREET","BX",10466,-73.8471,40.8891,0
"1052 EASTERN PARKWAY","BK",11213,-73.9333,40.6684,1
"1052 FINDLAY AVENUE","BX",10456,-73.9142,40.8291,0
"1052 SHERIDAN AVENUE","BX",10456,-73.9184,40.8307,0
"1053 53 STREET","BK",11219,-73.9995,40.6361,1
"1053 64 STREET","BK",11219,-74.006,40.6299,0
"1053 BOYNTON AVENUE","BX",10472,-73.8778,40.8255,0
"1053 EAST GUN HILL ROAD","BX",10469,-73.8558,40.8743,0
"1053 MANHATTAN AVENUE","BK",11222,-73.9553,40.7347,0
"1054 BERGEN AVENUE","BK",11234,-73.9176,40.6292,0
"1054 BERGEN STREET","BK",11216,-73.9513,40.6759,1
"1054 EAST 15 STREET","BK",11230,-73.9614,40.6239,0
"1054 PARK PLACE","BK",11213,-73.9426,40.6727,1
"1054 ROGERS AVENUE","BK",11226,-73.9521,40.6446,0
"1054 SOUTHERN BOULEVARD","BX",10459,-73.8915,40.8245,0
"1054 WILLOUGHBY AVENUE","BK",11221,-73.9269,40.6997,0
"1055 2 AVENUE","MN",10022,-73.9663,40.7585,0
"1055 53 STREET","BK",11219,-73.9995,40.6361,0
"1055 BEDFORD AVENUE","BK",11216,-73.9545,40.6878,0
"1055 BLAKE AVENUE","BK",11208,-73.8795,40.6703,0
"1055 COLLEGE AVENUE","BX",10456,-73.9153,40.8301,0
"1055 DR M L KING JR BLVD","BX",10452,-73.9306,40.8348,0
"1055 ESPLANADE","BX",10461,-73.8591,40.856,0
"1055 GLENMORE AVENUE","BK",11208,-73.8711,40.6771,0
"1055 GRAND CONCOURSE","BX",10452,-73.9207,40.8316,0
"1055 JEROME AVENUE","BX",10452,-73.9255,40.8331,0
"1055 MANHATTAN AVENUE","BK",11222,-73.9553,40.7348,0
"1055 SHERMAN AVENUE","BX",10456,-73.9179,40.8308,0
"1055 WALTON AVENUE","BX",10452,-73.9218,40.8317,0
"1056 BEDFORD AVENUE","BK",11205,-73.9553,40.6889,0
"1056 BOSTON ROAD","BX",10456,-73.9058,40.8264,1
"1056 BOYNTON AVENUE","BX",10472,-73.8773,40.8259,0
"1056 FINDLAY AVENUE","BX",10456,-73.9142,40.8291,1
"1056 LEXINGTON AVENUE","MN",10021,-73.9609,40.7727,0
"1056 SHERIDAN AVENUE","BX",10456,-73.9184,40.8308,0
"1056 SHERMAN AVENUE","BX",10456,-73.9175,40.8304,0
"1056 ST NICHOLAS AVENUE","MN",10032,-73.9397,40.8372,0
"1056 WILLOUGHBY AVENUE","BK",11221,-73.9269,40.6997,0
"1057 1 AVENUE","MN",10022,-73.9629,40.7588,0
"1057 2 AVENUE","MN",10022,-73.9663,40.7585,0
"1057 50 STREET","BK",11219,-73.9977,40.6378,0
"1057 BERGEN STREET","BK",11216,-73.9513,40.6764,0
"1057 CLAY AVENUE","BX",10456,-73.9128,40.829,1
"1057 HOE AVENUE","BX",10459,-73.8908,40.8248,0
"1057 LEXINGTON AVENUE","MN",10021,-73.9604,40.7724,0
"1057 SHERIDAN AVENUE","BX",10456,-73.9189,40.8307,0
"1058 1 AVENUE","MN",10022,-73.9622,40.7587,0
"1058 BERGEN STREET","BK",11216,-73.9511,40.6759,0
"1058 MADISON AVENUE","MN",10075,-73.9618,40.7773,0
"1058 PUTNAM AVENUE","BK",11221,-73.9198,40.6873,1
"1058 TELLER AVENUE","BX",10456,-73.9133,40.8288,0
"1059 1 AVENUE","MN",10022,-73.9629,40.7589,0
"1059 2 AVENUE","MN",10022,-73.9662,40.7586,0
"1059 67 STREET","BK",11219,-74.0077,40.6281,0
"1059 BERGEN STREET","BK",11216,-73.9512,40.6764,1
"1059 GLENMORE AVENUE","BK",11208,-73.871,40.6771,0
"1059 NEW LOTS AVENUE","BK",11208,-73.8754,40.6698,1
"1059 UNION STREET","BK",11225,-73.9579,40.6699,0
"106 6 AVENUE","BK",11217,-73.9758,40.6791,0
"106 AVENUE P","BK",11204,-73.9841,40.6073,0
"106 AVENUE S","BK",11223,-73.9818,40.6005,0
"106 BAYARD STREET","MN",10013,-73.9999,40.7163,0
"106 BEDFORD AVENUE","BK",11249,-73.9554,40.7203,0
"106 CABRINI BOULEVARD","MN",10033,-73.9404,40.8518,0
"106 CHARLES STREET","MN",10014,-74.0056,40.7343,0
"106 CHRISTOPHER STREET","MN",10014,-74.005,40.7331,0
"106 CLARKSON AVENUE","BK",11226,-73.956,40.6548,0
"106 CONVENT AVENUE","MN",10027,-73.9527,40.8171,0
"106 DIAMOND STREET","BK",11222,-73.947,40.7264,1
"106 EAGLE STREET","BK",11222,-73.9567,40.7348,0
"106 EAST 10 STREET","MN",10003,-73.9886,40.7304,0
"106 EAST 116 STREET","MN",10029,-73.9429,40.7989,0
"106 EAST 117 STREET","MN",10035,-73.9425,40.7996,0
"106 EAST 17 STREET","MN",10003,-73.9884,40.7361,0
"106 EAST 19 STREET","MN",10003,-73.9875,40.7372,0
"106 EAST 30 STREET","MN",10016,-73.9828,40.7442,0
"106 EAST 38 STREET","MN",10016,-73.9789,40.7491,0
"106 EAST 7 STREET","MN",10009,-73.9849,40.7264,0
"106 ELDRIDGE STREET","MN",10002,-73.9918,40.7179,0
"106 FT WASHINGTON AVENUE","MN",10032,-73.9432,40.8388,0
"106 GERRY STREET","BK",11206,-73.9458,40.7022,0
"106 GRATTAN STREET","BK",11237,-73.9289,40.7059,0
"106 GREENPOINT AVENUE","BK",11222,-73.9566,40.7297,0
"106 GREENWICH AVENUE","MN",10011,-74.0019,40.7383,0
"106 GREENWICH STREET","MN",10006,-74.0137,40.7085,0
"106 HURON STREET","BK",11222,-73.9573,40.7326,0
"106 JACKSON STREET","BK",11211,-73.9472,40.7162,1
"106 MAC DOUGAL STREET","MN",10012,-74.0007,40.7294,0
"106 MARCY PLACE","BX",10452,-73.9167,40.838,0
"106 MESEROLE AVENUE","BK",11222,-73.9524,40.727,1
"106 MORNINGSIDE DRIVE","MN",10027,-73.9578,40.8093,0
"106 MULBERRY STREET","MN",10013,-73.9982,40.7173,0
"106 NAGLE AVENUE","MN",10040,-73.9273,40.861,0
"106 NORFOLK STREET","MN",10002,-73.9869,40.7188,0
"106 NORTH 8 STREET","BK",11249,-73.9594,40.7195,0
"106 PARK PLACE","BK",11217,-73.975,40.6782,0
"106 PERRY STREET","MN",10014,-74.0056,40.735,0
"106 PINEHURST AVENUE","MN",10033,-73.9394,40.852,0
"106 PRESIDENT STREET","BK",11231,-74.0028,40.6833,0
"106 SCHOLES STREET","BK",11206,-73.9456,40.7084,0
"106 ST NICHOLAS AVENUE","BK",11237,-73.9188,40.7056,0
"106 STEUBEN STREET","BK",11205,-73.9635,40.6942,0
"106 THOMPSON STREET","MN",10012,-74.0018,40.7256,0
"106 TROUTMAN STREET","BK",11206,-73.9297,40.6991,0
"106 WASHINGTON AVENUE","BK",11205,-73.9676,40.6954,0
"106 WEST 105 STREET","MN",10025,-73.9641,40.7986,0
"106 WEST 109 STREET","MN",10025,-73.9623,40.8013,0
"106 WEST 113 STREET","MN",10026,-73.9519,40.8002,0
"106 WEST 114 STREET","MN",10026,-73.9514,40.8008,0
"106 WEST 13 STREET","MN",10011,-73.9981,40.7367,0
"106 WEST 134 STREET","MN",10030,-73.9423,40.8136,0
"106 WEST 137 STREET","MN",10030,-73.9407,40.8155,0
"106 WEST 69 STREET","MN",10023,-73.9807,40.7754,0
"106 WEST 71 STREET","MN",10023,-73.9798,40.7767,0
"106 WEST 76 STREET","MN",10023,-73.9775,40.78,0
"106 WEST 80 STREET","MN",10024,-73.9758,40.7827,0
"106 WEST 83 STREET","MN",10024,-73.9743,40.7846,0
"106 WEST 96 STREET","MN",10025,-73.9684,40.7929,0
"106 WEST HOUSTON STREET","MN",10012,-74.0004,40.7275,0
"106-07 101 AVENUE","QN",11416,-73.837,40.6871,1
"106-10 SHORE FRONT PARKWAY","QN",11694,-73.8263,40.582,0
"106-11 37 AVENUE","QN",11368,-73.8617,40.7541,0
"106-12 107 AVENUE","QN",11417,-73.834,40.6811,0
"106-12 JAMAICA AVENUE","QN",11418,-73.8406,40.6951,0
"106-15 217 STREET","QN",11429,-73.7405,40.7111,0
"106-15 QUEENS BOULEVARD","QN",11375,-73.8461,40.7229,0
"106-16 107 AVENUE","QN",11417,-73.8339,40.6811,0
"106-20 50 AVENUE","QN",11368,-73.8565,40.7441,0
"106-20 SHORE FRONT PARKWAY","QN",11694,-73.8275,40.5816,0
"106-38 150 STREET","QN",11435,-73.8013,40.695,1
"1060 ANDERSON AVENUE","BX",10452,-73.9257,40.8336,0
"1060 DR M L KING JR BLVD","BX",10452,-73.9299,40.8348,0
"1060 FINDLAY AVENUE","BX",10456,-73.9141,40.8292,1
"1060 HANCOCK STREET","BK",11221,-73.9146,40.6884,0
"1060 PARK AVENUE","MN",10128,-73.957,40.7812,0
"1060 ROGERS AVENUE","BK",11226,-73.9521,40.6441,1
"1060 SHERIDAN AVENUE","BX",10456,-73.9183,40.8309,1
"1060 SHERMAN AVENUE","BX",10456,-73.9173,40.8308,0
"1060 UNION STREET","BK",11225,-73.9571,40.6692,0
"1061 1 AVENUE","MN",10022,-73.9628,40.7589,0
"1061 67 STREET","BK",11219,-74.0076,40.628,1
"1061 BERGEN STREET","BK",11216,-73.951,40.6764,1
"1061 EAST 13 STREET","BK",11230,-73.9627,40.6236,0
"1061 FLUSHING AVENUE","BK",11237,-73.93,40.7045,0
"1061 GLENMORE AVENUE","BK",11208,-73.8709,40.6771,0
"1061 INTERVALE AVENUE","BX",10459,-73.8972,40.8251,0
"1061 MADISON AVENUE","MN",10028,-73.9611,40.7772,0
"1061 ST NICHOLAS AVENUE","MN",10032,-73.9404,40.8373,0
"1061 TRINITY AVENUE","BX",10456,-73.9045,40.8268,0
"1062 ROGERS AVENUE","BK",11226,-73.9521,40.6441,1
"1063 1 AVENUE","MN",10022,-73.9628,40.759,0
"1063 BEDFORD AVENUE","BK",11216,-73.9544,40.6875,1
"1063 BERGEN STREET","BK",11216,-73.9509,40.6764,1
"1063 EASTERN PARKWAY","BK",11213,-73.9331,40.6693,0
"1063 NEW LOTS AVENUE","BK",11208,-73.8753,40.6698,1
"1063 PACIFIC STREET","BK",11238,-73.9581,40.6792,0
"1063 WARD AVENUE","BX",10472,-73.8769,40.8259,0
"1064 66 STREET","BK",11219,-74.0073,40.6282,0
"1064 CARROLL PLACE","BX",10456,-73.9189,40.8313,0
"1064 CAULDWELL AVENUE","BX",10456,-73.9052,40.8265,0
"1064 EAST NEW YORK AVENUE","BK",11212,-73.9268,40.665,0
"1064 FINDLAY AVENUE","BX",10456,-73.9141,40.8293,1
"1064 MADISON AVENUE","MN",10028,-73.9617,40.7774,0
"1064 MANOR AVENUE","BX",10472,-73.8755,40.8262,0
"1064 PUTNAM AVENUE","BK",11221,-73.9195,40.6873,0
"1064 ROGERS AVENUE","BK",11226,-73.9521,40.644,0
"1064 SHERIDAN AVENUE","BX",10456,-73.9182,40.8311,0
"1064 WARD AVENUE","BX",10472,-73.8764,40.826,0
"1064 WILLMOHR STREET","BK",11212,-73.9185,40.6562,0
"1065 1 AVENUE","MN",10022,-73.9626,40.7592,0
"1065 3 AVENUE","MN",10065,-73.9645,40.7638,0
"1065 BOSTON ROAD","BX",10456,-73.9062,40.8267,0
"1065 BROADWAY","BK",11221,-73.9311,40.695,0
"1065 GERARD AVENUE","BX",10452,-73.9228,40.8321,0
"1065 JEROME AVENUE","BX",10452,-73.9252,40.8337,0
"1065 LAFAYETTE AVENUE","BK",11221,-73.9296,40.6926,0
"1065 LEXINGTON AVENUE","MN",10021,-73.9603,40.7725,0
"1065 MANOR AVENUE","BX",10472,-73.876,40.8261,0
"1065 NELSON AVENUE","BX",10452,-73.9279,40.8344,0
"1065 SUMMIT AVENUE","BX",10452,-73.9294,40.8349,0
"1066 1 AVENUE","MN",10022,-73.962,40.7591,0
"1066 2 AVENUE","MN",10022,-73.9654,40.7586,1
"1066 BERGEN STREET","BK",11216,-73.9509,40.6759,0
"1066 PUTNAM AVENUE","BK",11221,-73.9194,40.6873,1
"1067 1 AVENUE","MN",10022,-73.9626,40.7593,0
"1067 BEDFORD AVENUE","BK",11216,-73.9544,40.6874,0
"1067 EASTERN PARKWAY","BK",11213,-73.9329,40.6693,0
"1067 LAFAYETTE AVENUE","BK",11221,-73.9295,40.6926,0
"1067 MADISON AVENUE","MN",10028,-73.961,40.7774,0
"1067 PARK AVENUE","MN",10128,-73.9562,40.781,0
"1068 FINDLAY AVENUE","BX",10456,-73.914,40.8294,0
"1068 GERARD AVENUE","BX",10452,-73.9219,40.8321,0
"1068 LEXINGTON AVENUE","MN",10021,-73.9608,40.7729,0
"1068 OCEAN VIEW AVENUE","BK",11235,-73.9566,40.5796,0
"1068 RUTLAND ROAD","BK",11212,-73.9241,40.6638,0
"1068 WILLMOHR STREET","BK",11212,-73.9184,40.6563,0
"1068 WINTHROP STREET","BK",11212,-73.9239,40.6612,0
"1069 1 AVENUE","MN",10022,-73.9625,40.7593,1
"1069 39 STREET","BK",11219,-73.9908,40.6437,0
"1069 BERGEN STREET","BK",11216,-73.9507,40.6764,1
"1069 LAFAYETTE AVENUE","BK",11221,-73.9295,40.6926,0
"1069 STERLING PLACE","BK",11213,-73.9432,40.6724,0
"1069 WALTON AVENUE","BX",10452,-73.9215,40.8321,0
"106A NORTH 8 STREET","BK",11249,-73.9593,40.7195,0
"107 1 AVENUE","MN",10003,-73.9863,40.7269,0
"107 3 AVENUE","BK",11217,-73.9821,40.6829,1
"107 AVENUE D","MN",10009,-73.9763,40.7236,0
"107 BAY 25 STREET","BK",11214,-73.9996,40.6018,0
"107 BOERUM PLACE","BK",11201,-73.9911,40.6882,0
"107 CHRISTOPHER STREET","MN",10014,-74.0051,40.7334,0
"107 CLINTON STREET","MN",10002,-73.9859,40.7182,0
"107 CORNELIA STREET","BK",11221,-73.9159,40.6902,0
"107 EAST 100 STREET","MN",10029,-73.9501,40.7891,0
"107 EAST 126 STREET","MN",10035,-73.9372,40.8057,0
"107 EAST 2 STREET","MN",10009,-73.9874,40.7234,0
"107 EAST 35 STREET","MN",10016,-73.9801,40.7477,0
"107 EAST 37 STREET","MN",10016,-73.9792,40.7489,0
"107 EAST 56 STREET","BK",11203,-73.9246,40.6546,0
"107 EAST 59 STREET","BK",11203,-73.9214,40.6516,1
"107 EAST 80 STREET","MN",10075,-73.9592,40.7762,0
"107 EAST 82 STREET","MN",10028,-73.9584,40.7775,0
"107 EAST 88 STREET","MN",10128,-73.9554,40.7814,0
"107 EAST 89 STREET","MN",10128,-73.955,40.782,0
"107 ENGERT AVENUE","BK",11222,-73.9463,40.7217,0
"107 FREEMAN STREET","BK",11222,-73.9575,40.7344,0
"107 GRATTAN STREET","BK",11237,-73.9289,40.7063,0
"107 GREENPOINT AVENUE","BK",11222,-73.956,40.7303,0
"107 HAVEMEYER STREET","BK",11211,-73.9563,40.713,0
"107 HESTER STREET","MN",10002,-73.9929,40.7166,0
"107 JORALEMON STREET","BK",11201,-73.9953,40.6934,0
"107 KANE STREET","BK",11231,-74.0005,40.6877,0
"107 LAWRENCE STREET","BK",11201,-73.986,40.6927,0
"107 LINDEN STREET","BK",11221,-73.92,40.6931,0
"107 MAC DONOUGH STREET","BK",11216,-73.942,40.6815,0
"107 MAC DOUGAL STREET","MN",10012,-74.001,40.7299,0
"107 MADISON STREET","MN",10002,-73.995,40.7125,0
"107 MONTAGUE STREET","BK",11201,-73.9952,40.6953,0
"107 MORNINGSIDE AVENUE","MN",10027,-73.9544,40.8103,0
"107 NEWEL STREET","BK",11222,-73.9483,40.726,0
"107 NORTH 8 STREET","BK",11249,-73.9588,40.7197,0
"107 ST NICHOLAS AVENUE","BK",11237,-73.9184,40.7059,0
"107 SULLIVAN STREET","MN",10012,-74.0027,40.7257,0
"107 THOMPSON STREET","MN",10012,-74.0021,40.7258,0
"107 TROUTMAN STREET","BK",11206,-73.9302,40.6995,1
"107 UNIVERSITY PLACE","MN",10003,-73.9922,40.7341,0
"107 VAN BUREN STREET","BK",11221,-73.9415,40.6905,1
"107 VAN SICLEN AVENUE","BK",11207,-73.8913,40.6779,1
"107 VERMILYEA AVENUE","MN",10034,-73.9218,40.866,0
"107 WEST 104 STREET","MN",10025,-73.9642,40.7983,1
"107 WEST 106 STREET","MN",10025,-73.9632,40.7997,0
"107 WEST 11 STREET","MN",10011,-73.9986,40.7358,0
"107 WEST 113 STREET","MN",10026,-73.9516,40.8006,0
"107 WEST 135 STREET","MN",10030,-73.9415,40.8147,0
"107 WEST 137 STREET","MN",10030,-73.9405,40.8159,0
"107 WEST 138 STREET","MN",10030,-73.9401,40.8165,0
"107 WEST 28 STREET","MN",10001,-73.991,40.7465,0
"107 WEST 68 STREET","MN",10023,-73.981,40.7753,0
"107 WEST 69 STREET","MN",10023,-73.9805,40.7758,0
"107 WEST 74 STREET","MN",10023,-73.9783,40.7792,0
"107 WEST 75 STREET","MN",10023,-73.9779,40.7798,0
"107 WEST 82 STREET","MN",10024,-73.9746,40.7844,0
"107 WILLOW STREET","BK",11201,-73.9953,40.6978,0
"107-02 LEFFERTS BOULEVARD","QN",11419,-73.8234,40.6841,0
"107-02 MERRICK BOULEVARD","QN",11433,-73.7887,40.6993,1
"107-04 150 STREET","QN",11435,-73.801,40.6941,0
"107-10 SHORE FRONT PARKWAY","QN",11694,-73.8284,40.5809,0
"107-13 GUY R BREWER BLVD","QN",11433,-73.7918,40.6978,0
"107-19 70 AVENUE","QN",11375,-73.8454,40.7229,0
"107-19 SUTPHIN BOULEVARD","QN",11435,-73.8005,40.694,0
"107-24 CORONA AVENUE","QN",11368,-73.8556,40.7432,0
"107-27 11 AVENUE","QN",11357,-73.8212,40.7905,0
"107-29 SUTPHIN BOULEVARD","QN",11435,-73.8002,40.6939,0
"107-36 QUEENS BOULEVARD","QN",11375,-73.845,40.7213,0
"1070 ANDERSON AVENUE","BX",10452,-73.9256,40.8338,0
"1070 BERGEN AVENUE","BK",11234,-73.9168,40.6288,0
"1070 ELDER AVENUE","BX",10472,-73.8782,40.8258,0
"1070 MADISON AVENUE","MN",10028,-73.9615,40.7775,0
"1070 OGDEN AVENUE","BX",10452,-73.9281,40.8347,0
"1070 REV JAMES POLITE AVE","BX",10459,-73.8984,40.8255,0
"1070 WASHINGTON AVENUE","BX",10456,-73.9084,40.8277,0
"1071 1 AVENUE","MN",10022,-73.9625,40.7594,0
"1071 BEDFORD AVENUE","BK",11216,-73.9543,40.6872,1
"1071 CYPRESS AVENUE","QN",11385,-73.9001,40.6968,0
"1071 ELDER AVENUE","BX",10472,-73.8788,40.8257,0
"1071 FRANKLIN AVENUE","BX",10456,-73.9072,40.8273,0
"1071 LAFAYETTE AVENUE","BK",11221,-73.9294,40.6926,0
"1071 ST NICHOLAS AVENUE","MN",10032,-73.9403,40.8376,0
"1071 TINTON AVENUE","BX",10456,-73.9022,40.8261,0
"1072 FINDLAY AVENUE","BX",10456,-73.914,40.8295,1
"1072 LORIMER STREET","BK",11222,-73.9536,40.7275,0
"1072 WOODYCREST AVENUE","BX",10452,-73.9264,40.8343,0
"1073 1 AVENUE","MN",10022,-73.9625,40.7595,0
"1073 68 STREET","BK",11219,-74.008,40.6272,0
"1073 BEDFORD AVENUE","BK",11216,-73.9543,40.6871,0
"1073 EAST 73 STREET","BK",11234,-73.917,40.6286,0
"1073 GREENE AVENUE","BK",11221,-73.9248,40.6927,0
"1073 MANHATTAN AVENUE","BK",11222,-73.9554,40.7354,0
"1074 EASTERN PARKWAY","BK",11213,-73.933,40.6684,0
"1074 FULTON STREET","BK",11238,-73.9579,40.6813,0
"1074 LORIMER STREET","BK",11222,-73.9536,40.7275,0
"1074 SUMMIT AVENUE","BX",10452,-73.9288,40.8351,0
"1074 WILLMOHR STREET","BK",11212,-73.9183,40.6563,0
"1075 1 AVENUE","MN",10022,-73.9624,40.7595,0
"1075 BERGEN STREET","BK",11216,-73.9505,40.6764,1
"1075 EAST 35 STREET","BK",11210,-73.9421,40.6284,0
"1075 EDISON AVENUE","BX",10465,-73.8269,40.8333,0
"1075 GERARD AVENUE","BX",10452,-73.9225,40.8326,0
"1075 GRAND CONCOURSE","BX",10452,-73.9207,40.832,0
"1075 HALL PLACE","BX",10459,-73.8978,40.8256,0
"1075 NELSON AVENUE","BX",10452,-73.9278,40.8347,0
"1075 SHEEPSHEAD BAY ROAD","BK",11229,-73.9581,40.5938,0
"1076 1 AVENUE","MN",10022,-73.9618,40.7593,0
"1076 2 AVENUE","MN",10022,-73.9651,40.7589,0
"1076 BERGEN STREET","BK",11216,-73.9505,40.6759,0
"1076 BROADWAY","BK",11221,-73.9311,40.6944,1
"1076 DEAN STREET","BK",11216,-73.9545,40.6771,0
"1076 FINDLAY AVENUE","BX",10456,-73.9139,40.8296,1
"1076 TELLER AVENUE","BX",10456,-73.913,40.8294,0
"1077 BEDFORD AVENUE","BK",11216,-73.9543,40.687,0
"1077 BERGEN STREET","BK",11216,-73.9504,40.6764,1
"1077 BOSTON ROAD","BX",10456,-73.9058,40.827,0
"1077 FLUSHING AVENUE","BK",11237,-73.9293,40.7047,0
"1077 MANHATTAN AVENUE","BK",11222,-73.9554,40.7355,0
"1077 NEW YORK AVENUE","BK",11203,-73.9459,40.6468,1
"1077 TELLER AVENUE","BX",10456,-73.9136,40.8295,1
"1078 68 STREET","BK",11219,-74.0082,40.6268,0
"1078 BEDFORD AVENUE","BK",11216,-73.9551,40.6878,1
"1078 WILLMOHR STREET","BK",11212,-73.9182,40.6564,0
"1079 1 AVENUE","MN",10022,-73.9624,40.7596,0
"1079 GERARD AVENUE","BX",10452,-73.9223,40.833,0
"1079 HALL PLACE","BX",10459,-73.8977,40.8258,0
"1079 MANHATTAN AVENUE","BK",11222,-73.9554,40.7355,0
"108 9 AVENUE","MN",10011,-74.0036,40.7428,0
"108 ALBANY AVENUE","BK",11213,-73.9389,40.6768,0
"108 ATLANTIC AVENUE","BK",11201,-73.9965,40.6906,0
"108 AVENUE B","MN",10009,-73.9815,40.7251,0
"108 BALTIC STREET","BK",11201,-74.0002,40.6879,0
"108 BEDFORD AVENUE","BK",11249,-73.9555,40.7203,0
"108 CALYER STREET","BK",11222,-73.9564,40.7269,0
"108 CENTRAL AVENUE","BK",11206,-73.9294,40.7002,0
"108 CHARLES STREET","MN",10014,-74.0057,40.7343,0
"108 CLARKE PLACE EAST","BX",10452,-73.9172,40.8374,0
"108 CLAY STREET","BK",11222,-73.9538,40.7365,1
"108 COOPER STREET","BK",11207,-73.9082,40.6865,0
"108 DUPONT STREET","BK",11222,-73.9557,40.7356,0
"108 EAST 123 STREET","MN",10035,-73.9396,40.8033,0
"108 EAST 126 STREET","MN",10035,-73.9379,40.8052,1
"108 EAST 17 STREET","MN",10003,-73.9883,40.736,0
"108 EAST 30 STREET","MN",10016,-73.9827,40.7441,0
"108 EAST 4 STREET","MN",10003,-73.9884,40.7255,0
"108 EAST 81 STREET","MN",10028,-73.9588,40.7764,0
"108 EAST 97 STREET","MN",10029,-73.9515,40.7867,0
"108 ECKFORD STREET","BK",11222,-73.9483,40.7234,0
"108 ELDRIDGE STREET","MN",10002,-73.9918,40.718,0
"108 ELLWOOD STREET","MN",10040,-73.9295,40.8615,0
"108 FENIMORE STREET","BK",11225,-73.9586,40.6579,1
"108 FLUSHING AVENUE","BK",11205,-73.9729,40.6977,0
"108 GREENPOINT AVENUE","BK",11222,-73.9565,40.7297,0
"108 GROVE STREET","BK",11221,-73.9205,40.6931,0
"108 HARRISON PLACE","BK",11237,-73.9289,40.7066,1
"108 LEXINGTON AVENUE","MN",10016,-73.9829,40.7424,1
"108 MAC DOUGAL STREET","MN",10012,-74.0006,40.7294,0
"108 MADISON STREET","MN",10002,-73.9952,40.712,0
"108 NORFOLK STREET","MN",10002,-73.9868,40.7189,0
"108 NORTH 8 STREET","BK",11249,-73.9593,40.7194,0
"108 NORTH HENRY STREET","BK",11222,-73.9428,40.7229,1
"108 NORWOOD AVENUE","BK",11208,-73.8797,40.6834,0
"108 PARK TERRACE EAST","MN",10034,-73.9151,40.8713,0
"108 RALPH AVENUE","BK",11221,-73.9237,40.6862,1
"108 ST NICHOLAS AVENUE","BK",11237,-73.9187,40.7055,0
"108 STEUBEN STREET","BK",11205,-73.9635,40.6941,0
"108 THOMPSON STREET","MN",10012,-74.0017,40.7256,0
"108 WEST 111 STREET","MN",10026,-73.953,40.799,0
"108 WEST 116 STREET","MN",10026,-73.9506,40.8021,0
"108 WEST 141 STREET","MN",10030,-73.939,40.818,0
"108 WEST 17 STREET","MN",10011,-73.9963,40.7394,0
"108 WEST 227 STREET","MN",10463,-73.9098,40.8765,0
"108 WEST 71 STREET","MN",10023,-73.9799,40.7767,0
"108 WEST 74 STREET","MN",10023,-73.9784,40.7787,0
"108 WEST 80 STREET","MN",10024,-73.9758,40.7827,0
"108 WEST 81 STREET","MN",10024,-73.9752,40.7834,1
"108 WEST 83 STREET","MN",10024,-73.9744,40.7846,0
"108 WEST HOUSTON STREET","MN",10012,-74.0005,40.7276,0
"108-01 91 AVENUE","QN",11418,-73.8383,40.6933,1
"108-02 103 AVENUE","QN",11419,-73.834,40.6852,0
"108-02 AUSTIN STREET","QN",11375,-73.8423,40.7195,0
"108-03 37 AVENUE","QN",11368,-73.8601,40.7541,0
"108-06 39 AVENUE","QN",11368,-73.8588,40.7515,0
"108-15 91 AVENUE","QN",11418,-73.8379,40.6934,0
"108-16 38 AVENUE","QN",11368,-73.8589,40.7523,1
"108-17 91 AVENUE","QN",11418,-73.8378,40.6934,0
"108-20 38 AVENUE","QN",11368,-73.8587,40.7523,0
"108-20 48 AVENUE","QN",11368,-73.8554,40.746,1
"108-20 62 DRIVE","QN",11375,-73.85,40.7357,0
"108-20 GUY R BREWER BLVD","QN",11433,-73.7912,40.6959,0
"108-22 38 AVENUE","QN",11368,-73.8586,40.7523,0
"108-22 72 AVENUE","QN",11375,-73.8419,40.7198,0
"108-24 71 AVENUE","QN",11375,-73.8424,40.7218,0
"108-25 72 AVENUE","QN",11375,-73.8424,40.7202,0
"108-28 37 DRIVE","QN",11368,-73.8589,40.7532,0
"108-28 38 AVENUE","QN",11368,-73.8585,40.7524,0
"108-30 37 DRIVE","QN",11368,-73.8588,40.7532,0
"108-30 46 AVENUE","QN",11368,-73.8556,40.7474,0
"108-37 42 AVENUE","QN",11368,-73.8567,40.75,0
"108-37 48 AVENUE","QN",11368,-73.855,40.7465,0
"108-37 71 AVENUE","QN",11375,-73.8422,40.7223,0
"108-39 46 AVENUE","QN",11368,-73.8557,40.7479,0
"108-42 43 AVENUE","QN",11368,-73.8561,40.7489,1
"108-44 43 AVENUE","QN",11368,-73.856,40.749,0
"108-48 70 ROAD","QN",11375,-73.8425,40.7226,0
"108-49 63 AVENUE","QN",11375,-73.8491,40.7357,0
"108-50 39 AVENUE","QN",11368,-73.8574,40.7518,1
"108-50 62 DRIVE","QN",11375,-73.8493,40.736,0
"108-50 71 AVENUE","QN",11375,-73.8418,40.722,0
"108-52 39 AVENUE","QN",11368,-73.8573,40.7518,0
"108-60 45 AVENUE","QN",11368,-73.855,40.7484,0
"108-64 45 AVENUE","QN",11368,-73.8549,40.7484,0
"108-78 42 AVENUE","QN",11368,-73.8553,40.75,1
"1080 ANDERSON AVENUE","BX",10452,-73.9254,40.8341,0
"1080 FINDLAY AVENUE","BX",10456,-73.9139,40.8297,1
"1080 HALL PLACE","BX",10459,-73.8971,40.8257,0
"1080 OCEAN VIEW AVENUE","BK",11235,-73.9562,40.5794,0
"1080 PARK AVENUE","MN",10128,-73.9565,40.7817,0
"1081 3 AVENUE","MN",10065,-73.9641,40.7643,0
"1081 EASTERN PARKWAY","BK",11213,-73.9325,40.6693,1
"1081 SHERIDAN AVENUE","BX",10456,-73.9186,40.8312,0
"1081 TELLER AVENUE","BX",10456,-73.9135,40.8296,1
"1081 TOMPKINS AVENUE","SI",10305,-74.062,40.6006,0
"1082 EASTERN PARKWAY","BK",11213,-73.9325,40.6684,0
"1082 GERARD AVENUE","BX",10452,-73.9217,40.8325,0
"1082 NOSTRAND AVENUE","BK",11225,-73.951,40.6614,1
"1082 PRESIDENT STREET","BK",11225,-73.955,40.6681,0
"1083 CORTELYOU ROAD","BK",11226,-73.9576,40.6441,0
"1083 GERARD AVENUE","BX",10452,-73.9221,40.8333,0
"1083 MANHATTAN AVENUE","BK",11222,-73.9555,40.7356,1
"1083 WALTON AVENUE","BX",10452,-73.9214,40.8323,0
"1084 38 STREET","BK",11219,-73.9904,40.6438,0
"1084 BEDFORD AVENUE","BK",11216,-73.9551,40.6876,0
"1084 ELTON STREET","BK",11208,-73.8744,40.6566,0
"1084 HOME STREET","BX",10459,-73.8869,40.8276,0
"1084 NEW YORK AVENUE","BK",11203,-73.9465,40.6467,0
"1084 NOSTRAND AVENUE","BK",11225,-73.951,40.6613,1
"1084 WILLMOHR STREET","BK",11212,-73.9181,40.6565,0
"1085 COLGATE AVENUE","BX",10472,-73.8816,40.8253,0
"1085 EASTERN PARKWAY","BK",11213,-73.9323,40.6693,0
"1085 NELSON AVENUE","BX",10452,-73.9275,40.8351,0
"1085 PARK AVENUE","MN",10128,-73.9557,40.7815,0
"1085 UNION STREET","BK",11225,-73.9572,40.6698,0
"1086 BERGEN AVENUE","BK",11234,-73.9163,40.6286,0
"1086 BROADWAY","BK",11221,-73.9308,40.6942,0
"1086 HERKIMER STREET","BK",11233,-73.9175,40.6777,0
"1086 KELLY STREET","BX",10459,-73.8957,40.8258,1
"1086 OCEAN AVENUE","BK",11230,-73.9587,40.6359,0
"1086 SOUTHERN BOULEVARD","BX",10459,-73.8916,40.8259,0
"1087 DE KALB AVENUE","BK",11221,-73.9321,40.6938,0
"1087 SUMMIT AVENUE","BX",10452,-73.9292,40.8355,0
"1087 UNION STREET","BK",11225,-73.9571,40.6697,1
"1087 WILLMOHR STREET","BK",11212,-73.9182,40.657,0
"1088 ANDERSON AVENUE","BX",10452,-73.9252,40.8343,0
"1088 HERKIMER STREET","BK",11233,-73.9175,40.6777,1
"1088 WASHINGTON AVENUE","BX",10456,-73.9083,40.8283,0
"1088 WILLMOHR STREET","BK",11212,-73.9178,40.6567,1
"1089 EAST 73 STREET","BK",11234,-73.9165,40.6283,0
"1089 EASTERN PARKWAY","BK",11213,-73.9322,40.6693,1
"109 3 AVENUE","BK",11217,-73.9821,40.6828,1
"109 BAY 37 STREET","BK",11214,-73.9907,40.5965,0
"109 DIAMOND STREET","BK",11222,-73.9474,40.7261,0
"109 EAST 102 STREET","MN",10029,-73.9491,40.7903,0
"109 EAST 153 STREET","BX",10451,-73.9278,40.8241,0
"109 EAST 2 STREET","MN",10009,-73.9873,40.7234,0
"109 EAST 37 STREET","MN",10016,-73.9791,40.7489,1
"109 EAST 59 STREET","BK",11203,-73.9214,40.6515,0
"109 EAST 73 STREET","MN",10021,-73.9625,40.7717,0
"109 EAST 79 STREET","MN",10075,-73.9598,40.7757,0
"109 EAST 9 STREET","MN",10003,-73.9899,40.7305,0
"109 ELDRIDGE STREET","MN",10002,-73.9922,40.7182,0
"109 FRANKLIN STREET","BK",11222,-73.9578,40.7297,1
"109 FREEMAN STREET","BK",11222,-73.9574,40.7344,0
"109 GOLD STREET","BK",11201,-73.9824,40.7016,0
"109 JAVA STREET","BK",11222,-73.9565,40.7316,0
"109 JORALEMON STREET","BK",11201,-73.9953,40.6934,0
"109 LUDLOW STREET","MN",10002,-73.989,40.7194,0
"109 MADISON STREET","MN",10002,-73.9949,40.7125,0
"109 MONTAGUE STREET","BK",11201,-73.9951,40.6952,1
"109 MOORE STREET","BK",11206,-73.9413,40.7041,0
"109 MORNINGSIDE AVENUE","MN",10027,-73.9544,40.8103,1
"109 MOTT STREET","MN",10013,-73.9976,40.7175,0
"109 NORTH 8 STREET","BK",11249,-73.9588,40.7197,0
"109 NORTH 9 STREET","BK",11249,-73.9581,40.7202,0
"109 PARK PLACE","BK",11217,-73.9748,40.6786,0
"109 PROSPECT PARK WEST","BK",11215,-73.9757,40.6664,0
"109 SEAMAN AVENUE","MN",10034,-73.9236,40.8684,0
"109 SHERMAN AVENUE","MN",10034,-73.9248,40.8636,0
"109 SPRING STREET","MN",10012,-73.9997,40.7237,0
"109 ST NICHOLAS AVENUE","BK",11237,-73.9183,40.7058,0
"109 THOMPSON STREET","MN",10012,-74.0021,40.7259,0
"109 WASHINGTON STREET","MN",10006,-74.014,40.7086,0
"109 WEST 104 STREET","MN",10025,-73.9642,40.7984,1
"109 WEST 105 STREET","MN",10025,-73.9639,40.799,0
"109 WEST 106 STREET","MN",10025,-73.9633,40.7997,0
"109 WEST 113 STREET","MN",10026,-73.9517,40.8006,1
"109 WEST 119 STREET","MN",10026,-73.9489,40.8045,0
"109 WEST 130 STREET","MN",10027,-73.9438,40.8114,0
"109 WEST 225 STREET","MN",10463,-73.9105,40.8746,0
"109 WEST 70 STREET","MN",10023,-73.98,40.7765,0
"109 WEST 74 STREET","MN",10023,-73.9784,40.7792,0
"109 WEST 75 STREET","MN",10023,-73.9779,40.7798,0
"109 WEST 94 STREET","MN",10025,-73.9691,40.7921,0
"109 WEST TREMONT AVENUE","BX",10453,-73.9133,40.8503,0
"109-02 SUTPHIN BOULEVARD","QN",11435,-73.7984,40.6917,1
"109-05 120 STREET","QN",11420,-73.821,40.6823,0
"109-05 72 AVENUE","QN",11375,-73.8417,40.721,0
"109-05 QUEENS BOULEVARD","QN",11375,-73.842,40.7212,0
"109-08 85 AVENUE","QN",11418,-73.8403,40.6997,0
"109-10 PARK LANE SOUTH","QN",11418,-73.8408,40.7012,0
"109-10 QUEENS BOULEVARD","QN",11375,-73.8419,40.72,0
"109-14 ASCAN AVENUE","QN",11375,-73.84,40.7186,0
"109-15 37 AVENUE","QN",11368,-73.8579,40.7542,0
"109-15 CENTREVILLE STREET","QN",11417,-73.834,40.6783,1
"109-15 MERRICK BOULEVARD","QN",11433,-73.7836,40.697,0
"109-15 QUEENS BOULEVARD","QN",11375,-73.841,40.7206,0
"109-16 85 AVENUE","QN",11418,-73.8399,40.6998,0
"109-17 46 AVENUE","QN",11368,-73.8549,40.7481,0
"109-17 CENTREVILLE STREET","QN",11417,-73.834,40.6782,0
"109-18 34 AVENUE","QN",11368,-73.8589,40.7562,0
"109-18 LEFFERTS BOULEVARD","QN",11420,-73.8222,40.6815,0
"109-19 CENTREVILLE STREET","QN",11417,-73.834,40.6782,0
"109-20 QUEENS BOULEVARD","QN",11375,-73.8414,40.7199,0
"109-23 71 ROAD","QN",11375,-73.8423,40.7215,0
"109-27 CORONA AVENUE","QN",11368,-73.853,40.7419,1
"109-29 CORONA AVENUE","QN",11368,-73.8529,40.7418,0
"109-33 71 ROAD","QN",11375,-73.8419,40.7217,0
"109-44 LEFFERTS BOULEVARD","QN",11420,-73.8219,40.6809,0
"1090 3 AVENUE","MN",10065,-73.9644,40.7651,0
"1090 CROES AVENUE","BX",10472,-73.8698,40.8269,0
"1090 DR M L KING JR BLVD","BX",10452,-73.9295,40.8356,0
"1090 EAST NEW YORK AVENUE","BK",11212,-73.9264,40.6652,0
"1090 EASTERN PARKWAY","BK",11213,-73.9323,40.6684,0
"1090 FRANKLIN AVENUE","BX",10456,-73.9064,40.8272,0
"1090 MANHATTAN AVENUE","BK",11222,-73.9549,40.7358,0
"1090 ST NICHOLAS AVENUE","MN",10032,-73.9396,40.8381,0
"1091 DEAN STREET","BK",11216,-73.9538,40.6775,0
"1091 LEXINGTON AVENUE","MN",10075,-73.9596,40.7733,0
"1091 NEILL AVENUE","BX",10461,-73.8565,40.8536,0
"1091 PROSPECT AVENUE","BX",10459,-73.8994,40.8259,0
"1091 WILLMOHR STREET","BK",11212,-73.9181,40.6572,0
"1092 ANDERSON AVENUE","BX",10452,-73.9251,40.8345,0
"1092 NOSTRAND AVENUE","BK",11225,-73.951,40.6612,1
"1092 WILLMOHR STREET","BK",11212,-73.9176,40.6568,0
"1092 WINTHROP STREET","BK",11212,-73.9233,40.6616,1
"1093 2 AVENUE","MN",10022,-73.9652,40.7598,0
"1093 DEAN STREET","BK",11216,-73.9538,40.6775,1
"1093 ST JOHNS PLACE","BK",11213,-73.943,40.6716,0
"1094 FRANKLIN AVENUE","BX",10456,-73.9063,40.8274,0
"1094 MADISON AVENUE","MN",10028,-73.9607,40.7787,0
"1094 NEW YORK AVENUE","BK",11203,-73.9465,40.6463,0
"1095 BEDFORD AVENUE","BK",11216,-73.9542,40.6863,0
"1095 EAST 15 STREET","BK",11230,-73.9607,40.623,0
"1095 PROSPECT AVENUE","BX",10459,-73.8994,40.826,1
"1096 OCEAN AVENUE","BK",11230,-73.9587,40.6357,0
"1097 1 AVENUE","MN",10065,-73.9618,40.7605,0
"1097 CLARKSON AVENUE","BK",11212,-73.9221,40.6601,1
"1097 PROSPECT PLACE","BK",11213,-73.94,40.674,1
"1097 WALTON AVENUE","BX",10452,-73.9212,40.8327,0
"1098 ANDERSON AVENUE","BX",10452,-73.9251,40.8346,0
"1098 EASTERN PARKWAY","BK",11213,-73.9321,40.6684,0
"1098 FRANKLIN AVENUE","BX",10456,-73.9062,40.8276,0
"1098 GERARD AVENUE","BX",10452,-73.9215,40.8328,0
"1098 GRANT AVENUE","BX",10456,-73.9163,40.8309,0
"11 1 PLACE","BK",11231,-74,40.6815,0
"11 2 AVENUE","MN",10003,-73.9912,40.7242,0
"11 4 PLACE","BK",11231,-74.0012,40.6791,0
"11 8 AVENUE","MN",10014,-74.005,40.7377,0
"11 AVENUE B","MN",10009,-73.9834,40.7217,0
"11 AVENUE D","MN",10009,-73.9787,40.7205,1
"11 BROADWAY","BK",11249,-73.9679,40.7113,0
"11 BROADWAY TERRACE","MN",10040,-73.9315,40.8574,0
"11 CARMINE STREET","MN",10014,-74.0023,40.7306,0
"11 CHATHAM SQUARE","MN",10038,-73.9979,40.7141,0
"11 CLIFFORD PLACE","BK",11222,-73.9557,40.7267,0
"11 COTTAGE PLACE","SI",10302,-74.1302,40.6367,0
"11 CROOKE AVENUE","BK",11226,-73.965,40.6521,0
"11 EAST 109 STREET","MN",10029,-73.9488,40.7961,0
"11 EAST 125 STREET","MN",10035,-73.9416,40.8065,1
"11 EAST 17 STREET","MN",10003,-73.9912,40.7377,0
"11 EAST 199 STREET","BX",10468,-73.8891,40.8722,0
"11 EAST 32 STREET","MN",10016,-73.9845,40.747,0
"11 EAST 66 STREET","MN",10065,-73.9688,40.7684,0
"11 EAST 7 STREET","MN",10003,-73.9898,40.7289,0
"11 EAST 75 STREET","MN",10021,-73.9645,40.7742,0
"11 EAST 78 STREET","MN",10075,-73.9631,40.7761,0
"11 EAST 80 STREET","MN",10075,-73.9622,40.7775,0
"11 EAST 88 STREET","MN",10128,-73.9585,40.7827,0
"11 EAST 9 STREET","MN",10003,-73.995,40.7327,0
"11 EAST 92 STREET","MN",10128,-73.9567,40.7852,0
"11 ELDRIDGE STREET","MN",10002,-73.994,40.7148,0
"11 ESSEX STREET","MN",10002,-73.9903,40.7151,0
"11 GUNTHER PLACE","BK",11233,-73.9115,40.6772,1
"11 HALSEY STREET","BK",11216,-73.953,40.6817,1
"11 HUGH J GRANT CIRCLE","BX",10462,-73.8614,40.8341,0
"11 HUMBOLDT STREET","BK",11206,-73.9408,40.7014,0
"11 JACOBUS PLACE","MN",10463,-73.9118,40.8757,0
"11 LINDEN BOULEVARD","BK",11226,-73.9587,40.6524,1
"11 LOCUST STREET","BK",11206,-73.9381,40.6991,1
"11 MAPLE STREET","BK",11225,-73.9603,40.6604,0
"11 MIDWOOD STREET","BK",11225,-73.9602,40.6597,0
"11 MT MORRIS PARK WEST","MN",10027,-73.9459,40.8047,0
"11 OLD BROADWAY","MN",10027,-73.9571,40.8152,0
"11 PELL STREET","MN",10013,-73.9979,40.7146,0
"11 PRINCE STREET","MN",10012,-73.9938,40.7228,0
"11 RIVERSIDE DRIVE","MN",10023,-73.9845,40.7811,0
"11 RUTLAND ROAD","BK",11225,-73.96,40.659,0
"11 SCHERMERHORN STREET","BK",11201,-73.9931,40.6916,0
"11 SEAMAN AVENUE","MN",10034,-73.9271,40.8664,0
"11 STANTON STREET","MN",10002,-73.9924,40.7224,0
"11 VERMILYEA AVENUE","MN",10034,-73.9259,40.8645,0
"11 WADSWORTH AVENUE","MN",10033,-73.9382,40.8449,0
"11 WAVERLY PLACE","MN",10003,-73.994,40.7303,0
"11 WEST 17 STREET","MN",10011,-73.9929,40.7384,0
"11 WEST 70 STREET","MN",10023,-73.9775,40.7754,0
"11 WEST 8 STREET","MN",10011,-73.9971,40.7328,0
"11 WEST 82 STREET","MN",10024,-73.9719,40.7832,0
"11 WEST 9 STREET","MN",10011,-73.9967,40.7334,0
"11-01 162 STREET","QN",11357,-73.7997,40.7916,0
"11-11 47 ROAD","QN",11101,-73.9505,40.7445,0
"11-12 47 AVENUE","QN",11101,-73.9504,40.7447,0
"11-13 47 ROAD","QN",11101,-73.9504,40.7444,1
"11-14 46 AVENUE","QN",11101,-73.9498,40.7461,0
"11-14 47 AVENUE","QN",11101,-73.9503,40.7447,0
"11-15 45 AVENUE","QN",11101,-73.9492,40.7479,0
"11-15 46 ROAD","QN",11101,-73.9499,40.7458,0
"11-15 BROADWAY","QN",11106,-73.9351,40.7676,0
"11-18 47 AVENUE","QN",11101,-73.9502,40.7447,0
"11-20 47 AVENUE","QN",11101,-73.9501,40.7447,1
"11-21 47 ROAD","QN",11101,-73.9501,40.7444,1
"11-23 47 ROAD","QN",11101,-73.9501,40.7444,0
"11-24 46 AVENUE","QN",11101,-73.9495,40.746,0
"11-25 46 ROAD","QN",11101,-73.9496,40.7458,0
"11-27 47 AVENUE","QN",11101,-73.9497,40.745,0
"11-27 NAMEOKE STREET","QN",11691,-73.7499,40.6052,0
"11-29 47 AVENUE","QN",11101,-73.9496,40.745,0
"11-34 44 DRIVE","QN",11101,-73.9489,40.7481,0
"11-36 44 DRIVE","QN",11101,-73.9488,40.7481,0
"11-36 MC BRIDE STREET","QN",11691,-73.7575,40.6052,1
"11-38 31 DRIVE","QN",11106,-73.9347,40.7678,0
"11-38 44 DRIVE","QN",11101,-73.9486,40.7481,0
"11-38 MC BRIDE STREET","QN",11691,-73.7574,40.6053,1
"11-40 44 DRIVE","QN",11101,-73.9485,40.748,0
"11-41 13 AVENUE","QN",11356,-73.8448,40.7868,0
"11-42 44 DRIVE","QN",11101,-73.9484,40.748,0
"11-43 45 AVENUE","QN",11101,-73.9482,40.7477,0
"11-44 44 DRIVE","QN",11101,-73.9482,40.748,1
"11-46 44 DRIVE","QN",11101,-73.9481,40.748,0
"11-47 45 AVENUE","QN",11101,-73.9481,40.7477,0
"11-53 44 DRIVE","QN",11101,-73.9476,40.7484,0
"11-55 45 AVENUE","QN",11101,-73.9479,40.7476,0
"11-57 44 DRIVE","QN",11101,-73.9475,40.7484,0
"11-58 49 AVENUE","QN",11101,-73.9497,40.7424,0
"11-70 NAMEOKE STREET","QN",11691,-73.7498,40.6065,0
"110 4 AVENUE","BK",11217,-73.9809,40.6812,0
"110 9 AVENUE","MN",10011,-74.0035,40.7429,0
"110 ADELPHI STREET","BK",11205,-73.9724,40.6944,0
"110 AVENUE C","BK",11218,-73.9784,40.6401,0
"110 AVENUE OF THE AMER","MN",10013,-74.0044,40.7237,0
"110 AVENUE S","BK",11223,-73.9817,40.6005,0
"110 BALTIC STREET","BK",11201,-74.0001,40.6879,0
"110 BANK STREET","MN",10014,-74.0073,40.7361,0
"110 BEDFORD AVENUE","BK",11249,-73.9557,40.7201,0
"110 BENNETT AVENUE","MN",10033,-73.9353,40.8538,0
"110 CALYER STREET","BK",11222,-73.9563,40.7269,0
"110 CHAMBERS STREET","MN",10007,-74.0083,40.7149,0
"110 CLAY STREET","BK",11222,-73.9537,40.7365,0
"110 CONVENT AVENUE","MN",10027,-73.9526,40.8172,0
"110 COOPER STREET","BK",11207,-73.9082,40.6866,0
"110 DIVISION AVENUE","BK",11211,-73.9635,40.7074,0
"110 EAST 1 STREET","MN",10009,-73.9867,40.7228,0
"110 EAST 10 STREET","MN",10003,-73.9885,40.7303,0
"110 EAST 13 STREET","MN",10003,-73.9893,40.733,0
"110 EAST 17 STREET","MN",10003,-73.9882,40.736,0
"110 EAST 176 STREET","BX",10453,-73.9093,40.8479,0
"110 EAST 177 STREET","BX",10453,-73.9075,40.8493,0
"110 EAST 36 STREET","MN",10016,-73.9799,40.7479,0
"110 EAST 37 STREET","MN",10016,-73.9793,40.7484,0
"110 EAST 61 STREET","MN",10065,-73.9685,40.7637,0
"110 EAST 7 STREET","MN",10009,-73.9848,40.7263,0
"110 EAST 84 STREET","MN",10028,-73.9576,40.7784,0
"110 EAST 87 STREET","MN",10128,-73.9562,40.7804,0
"110 EAST END AVENUE","MN",10028,-73.9459,40.7743,0
"110 EMPIRE BOULEVARD","BK",11225,-73.9585,40.6632,0
"110 FROST STREET","BK",11211,-73.9472,40.7176,1
"110 FULTON STREET","MN",10038,-74.0071,40.7097,0
"110 GREENPOINT AVENUE","BK",11222,-73.9564,40.7297,1
"110 GROVE STREET","BK",11221,-73.9203,40.6933,0
"110 HURON STREET","BK",11222,-73.9571,40.7326,0
"110 LAFAYETTE AVENUE","BK",11217,-73.9731,40.6871,0
"110 LAUREL HILL TERRACE","MN",10040,-73.9273,40.8518,0
"110 LEE AVENUE","BK",11211,-73.9588,40.7043,0
"110 LUDLOW STREET","MN",10002,-73.9885,40.7192,0
"110 MAC DOUGAL STREET","MN",10012,-74.0006,40.7295,0
"110 MADISON STREET","MN",10002,-73.9951,40.712,0
"110 MARTENSE STREET","BK",11226,-73.9551,40.6512,0
"110 MARTIN L KING PLACE","BK",11206,-73.9485,40.6967,1
"110 MESEROLE AVENUE","BK",11222,-73.9523,40.727,0
"110 MESEROLE STREET","BK",11206,-73.9455,40.7076,0
"110 MONTAGUE STREET","BK",11201,-73.9951,40.6948,1
"110 MT HOPE PLACE","BX",10453,-73.9078,40.8485,0
"110 MULBERRY STREET","MN",10013,-73.9981,40.7174,0
"110 NEW YORK AVENUE","BK",11216,-73.9476,40.6762,0
"110 NORTH 8 STREET","BK",11249,-73.9592,40.7194,0
"110 NORTH HENRY STREET","BK",11222,-73.9428,40.723,0
"110 NOSTRAND AVENUE","BK",11205,-73.9531,40.6964,1
"110 OCEAN PARKWAY","BK",11218,-73.9756,40.6476,0
"110 POST AVENUE","MN",10034,-73.9207,40.8647,0
"110 RALPH AVENUE","BK",11221,-73.9237,40.6861,1
"110 REMSEN STREET","BK",11201,-73.9943,40.6937,0
"110 ROCHESTER AVENUE","BK",11233,-73.9281,40.6753,0
"110 SEIGEL STREET","BK",11206,-73.942,40.7043,1
"110 SHORE BOULEVARD","BK",11235,-73.9534,40.5814,0
"110 SMITH STREET","BK",11201,-73.9899,40.688,1
"110 SOUTH 8 STREET","BK",11249,-73.9647,40.7093,0
"110 ST JAMES PLACE","BK",11238,-73.9647,40.6866,0
"110 ST MARKS PLACE","MN",10009,-73.9843,40.7269,0
"110 TERRACE VIEW AVENUE","MN",10463,-73.9127,40.8764,0
"110 THOMPSON STREET","MN",10012,-74.0017,40.7257,0
"110 WEST 109 STREET","MN",10025,-73.9625,40.8013,0
"110 WEST 130 STREET","MN",10027,-73.944,40.811,0
"110 WEST 137 STREET","MN",10030,-73.9408,40.8155,0
"110 WEST 14 STREET","MN",10011,-73.9977,40.7374,0
"110 WEST 69 STREET","MN",10023,-73.9809,40.7755,0
"110 WEST 74 STREET","MN",10023,-73.9785,40.7788,0
"110 WEST 81 STREET","MN",10024,-73.9753,40.7833,0
"110 WEST 86 STREET","MN",10024,-73.9728,40.7864,0
"110 WEST 87 STREET","MN",10024,-73.9724,40.7872,1
"110 WEST 94 STREET","MN",10025,-73.9694,40.7917,0
"110 WEST 96 STREET","MN",10025,-73.9685,40.793,0
"110 WEST HOUSTON STREET","MN",10012,-74.0006,40.7276,0
"110 WYONA STREET","BK",11207,-73.8944,40.6766,0
"110-06 56 AVENUE","QN",11368,-73.8512,40.7412,0
"110-06 72 AVENUE","QN",11375,-73.8405,40.7209,0
"110-07 73 ROAD","QN",11375,-73.8397,40.7182,0
"110-08 91 AVENUE","QN",11418,-73.8365,40.694,1
"110-10 91 AVENUE","QN",11418,-73.8364,40.6941,0
"110-11 72 AVENUE","QN",11375,-73.8404,40.7213,0
"110-12 64 AVENUE","QN",11375,-73.8461,40.7336,0
"110-12 64 ROAD","QN",11375,-73.8458,40.7331,0
"110-14 ASTORIA BOULEVARD","QN",11369,-73.8595,40.7595,0
"110-15 65 AVENUE","QN",11375,-73.8456,40.7328,0
"110-15 71 ROAD","QN",11375,-73.8407,40.722,0
"110-16 72 AVENUE","QN",11375,-73.8398,40.7211,0
"110-17 CORONA AVENUE","QN",11368,-73.8518,40.7415,0
"110-17 QUEENS BOULEVARD","QN",11375,-73.8396,40.7202,0
"110-19 72 ROAD","QN",11375,-73.8401,40.7207,0
"110-20 71 AVENUE","QN",11375,-73.8405,40.7224,0
"110-20 71 ROAD","QN",11375,-73.8404,40.7216,0
"110-20 73 ROAD","QN",11375,-73.8388,40.7182,0
"110-21 73 ROAD","QN",11375,-73.8395,40.7186,0
"110-31 73 ROAD","QN",11375,-73.8393,40.7189,0
"110-33 72 AVENUE","QN",11375,-73.8397,40.7216,0
"110-34 55 AVENUE","QN",11368,-73.8516,40.7417,0
"110-34 73 ROAD","QN",11375,-73.8386,40.7186,0
"110-35 72 ROAD","QN",11375,-73.8394,40.7209,0
"110-45 71 ROAD","QN",11375,-73.8397,40.7223,0
"110-45 QUEENS BOULEVARD","QN",11375,-73.8388,40.7197,0
"110-48 72 AVENUE","QN",11375,-73.8392,40.7213,0
"110-50 71 ROAD","QN",11375,-73.8394,40.7219,0
"110-56 71 AVENUE","QN",11375,-73.8395,40.7227,0
"110-68 CORONA AVENUE","QN",11368,-73.8504,40.7405,0
"1100 CLAY AVENUE","BX",10456,-73.9119,40.8295,0
"1100 DEAN STREET","BK",11216,-73.9537,40.6769,0
"1100 EAST TREMONT AVENUE","BX",10460,-73.8772,40.8397,0
"1100 GRAND CONCOURSE","BX",10456,-73.9191,40.832,0
"1100 OCEAN AVENUE","BK",11230,-73.9586,40.6355,0
"1100 WEST FARMS ROAD","BX",10459,-73.8901,40.8262,1
"1101 1 AVENUE","MN",10065,-73.9617,40.7606,0
"1101 BROADWAY","BK",11221,-73.93,40.6943,0
"1101 ELDERT LANE","BK",11208,-73.8607,40.6627,0
"1101 MANOR AVENUE","BX",10472,-73.8761,40.8266,0
"1101 UNION STREET","BK",11225,-73.9565,40.6696,0
"1102 AVENUE K","BK",11230,-73.9641,40.6222,0
"1102 DEAN STREET","BK",11216,-73.9536,40.6769,0
"1102 DR M L KING JR BLVD","BX",10452,-73.9292,40.8358,0
"1102 EAST 31 STREET","BK",11210,-73.9457,40.6243,1
"1102 EASTERN PARKWAY","BK",11213,-73.9319,40.6683,0
"1102 FLATBUSH AVENUE","BK",11226,-73.9581,40.6435,0
"1102 GLENWOOD ROAD","BK",11230,-73.9663,40.6317,0
"1102 WASHINGTON AVENUE","BX",10456,-73.908,40.8286,0
"1103 1 AVENUE","MN",10065,-73.9616,40.7606,0
"1103 CARROLL STREET","BK",11225,-73.9529,40.6676,0
"1103 SHEEPSHEAD BAY ROAD","BK",11229,-73.9579,40.5932,0
"1103 SHERIDAN AVENUE","BX",10456,-73.9184,40.8318,0
"1104 DEAN STREET","BK",11216,-73.9535,40.6769,0
"1104 LEXINGTON AVENUE","MN",10075,-73.9599,40.7739,0
"1104 MANOR AVENUE","BX",10472,-73.8756,40.8267,0
"1105 1 AVENUE","MN",10065,-73.9616,40.7607,0
"1105 72 STREET","BK",11228,-74.0097,40.6246,1
"1105 BOYNTON AVENUE","BX",10472,-73.878,40.8264,0
"1105 COLLEGE AVENUE","BX",10456,-73.915,40.8305,0
"1105 ELDER AVENUE","BX",10472,-73.8789,40.8263,0
"1105 HOE AVENUE","BX",10459,-73.8912,40.8259,0
"1105 MORRISON AVENUE","BX",10472,-73.8743,40.8269,0
"1105 STRATFORD AVENUE","BX",10472,-73.8752,40.8267,0
"1106 BOYNTON AVENUE","BX",10472,-73.8774,40.8265,0
"1106 COLLEGE AVENUE","BX",10456,-73.9144,40.8304,0
"1106 MORRIS AVENUE","BX",10456,-73.9153,40.8306,0
"1106 REMSEN AVENUE","BK",11236,-73.9084,40.6419,0
"1106 WEST FARMS ROAD","BX",10459,-73.89,40.8263,0
"1107 1 AVENUE","MN",10065,-73.9615,40.7608,0
"1107 CARROLL STREET","BK",11225,-73.9528,40.6676,1
"1107 LENOX ROAD","BK",11212,-73.9195,40.659,0
"1108 DEAN STREET","BK",11216,-73.9534,40.6769,0
"1108 FULTON STREET","BK",11238,-73.9566,40.6811,0
"1109 1 AVENUE","MN",10065,-73.9615,40.7608,0
"1109 CLAY AVENUE","BX",10456,-73.9123,40.8299,0
"1109 FINDLAY AVENUE","BX",10456,-73.9141,40.8304,1
"1109 FRANKLIN AVENUE","BX",10456,-73.9065,40.828,0
"111 1 AVENUE","MN",10003,-73.9861,40.7269,0
"111 15 STREET","BK",11215,-73.993,40.6676,1
"111 3 AVENUE","MN",10003,-73.9871,40.7328,0
"111 4 PLACE","BK",11231,-73.9975,40.678,0
"111 5 AVENUE","BK",11217,-73.9783,40.6792,0
"111 AUDUBON AVENUE","MN",10032,-73.9367,40.8423,0
"111 AVENUE A","MN",10009,-73.9837,40.7263,0
"111 AVENUE F","BK",11218,-73.9771,40.6335,1
"111 BANK STREET","MN",10014,-74.0073,40.7365,0
"111 BAY 37 STREET","BK",11214,-73.9908,40.5964,0
"111 BEDFORD AVENUE","BK",11211,-73.9552,40.7198,0
"111 CHAMBERS STREET","MN",10007,-74.0081,40.7152,1
"111 CHRISTOPHER STREET","MN",10014,-74.0053,40.7334,0
"111 CHRYSTIE STREET","MN",10002,-73.994,40.7186,0
"111 DIAMOND STREET","BK",11222,-73.9475,40.7262,0
"111 DIVISION STREET","MN",10002,-73.9923,40.7142,0
"111 DUPONT STREET","BK",11222,-73.9557,40.736,1
"111 E MOSHOLU PARKWAY N","BX",10467,-73.8821,40.878,0
"111 EAST 100 STREET","MN",10029,-73.9498,40.789,0
"111 EAST 118 STREET","MN",10035,-73.9414,40.8005,0
"111 EAST 167 STREET","BX",10452,-73.9188,40.8352,0
"111 EAST 182 STREET","BX",10453,-73.9022,40.8568,0
"111 EAST 2 STREET","MN",10009,-73.9873,40.7234,0
"111 EAST 21 STREET","BK",11226,-73.9599,40.6518,0
"111 EAST 26 STREET","MN",10010,-73.9841,40.742,0
"111 EAST 31 STREET","MN",10016,-73.9819,40.7451,0
"111 EAST 38 STREET","MN",10016,-73.9784,40.7494,0
"111 EAST 39 STREET","MN",10016,-73.9781,40.7501,0
"111 EAST 7 STREET","MN",10009,-73.9845,40.7267,0
"111 EAST 79 STREET","MN",10075,-73.9598,40.7756,0
"111 EAST 88 STREET","MN",10128,-73.9552,40.7813,0
"111 ELDRIDGE STREET","MN",10002,-73.9922,40.7183,0
"111 FATHER ZEISER PLACE","BX",10468,-73.9046,40.8645,0
"111 FREEMAN STREET","BK",11222,-73.9573,40.7344,0
"111 GREENPOINT AVENUE","BK",11222,-73.9558,40.7303,0
"111 GREENWICH AVENUE","MN",10014,-74.0022,40.738,0
"111 HENRY STREET","MN",10002,-73.9919,40.7135,0
"111 HURON STREET","BK",11222,-73.9571,40.733,0
"111 KINGSTON AVENUE","BK",11213,-73.9414,40.6762,1
"111 LEE AVENUE","BK",11211,-73.9583,40.7046,0
"111 LENOX AVENUE","MN",10026,-73.9503,40.8018,0
"111 MAC DOUGAL STREET","MN",10012,-74.0008,40.73,0
"111 MONTAGUE STREET","BK",11201,-73.995,40.6952,0
"111 MOORE STREET","BK",11206,-73.9412,40.7041,0
"111 MORNINGSIDE AVENUE","MN",10027,-73.9543,40.8104,0
"111 MOTT STREET","MN",10013,-73.9976,40.7176,0
"111 MT HOPE PLACE","BX",10453,-73.9076,40.849,0
"111 NEWEL STREET","BK",11222,-73.9484,40.7261,0
"111 NORFOLK STREET","MN",10002,-73.9873,40.7191,0
"111 NORTH 9 STREET","BK",11249,-73.958,40.7202,0
"111 RIDGEWOOD AVENUE","BK",11208,-73.8848,40.683,0
"111 SKILLMAN AVENUE","BK",11211,-73.9469,40.7159,0
"111 SOUTH OXFORD STREET","BK",11217,-73.9731,40.6863,0
"111 ST JOHNS PLACE","BK",11217,-73.9756,40.6773,0
"111 ST MARKS PLACE","MN",10009,-73.9838,40.7272,0
"111 SULLIVAN STREET","MN",10012,-74.0026,40.7258,0
"111 TUDOR PLACE","BX",10452,-73.9192,40.8344,0
"111 WEST 104 STREET","MN",10025,-73.9644,40.7984,0
"111 WEST 126 STREET","MN",10027,-73.9456,40.8089,0
"111 WEST 135 STREET","MN",10030,-73.9416,40.8147,0
"111 WEST 137 STREET","MN",10030,-73.9406,40.8159,0
"111 WEST 138 STREET","MN",10030,-73.9402,40.8166,1
"111 WEST 141 STREET","MN",10030,-73.9389,40.8185,0
"111 WEST 16 STREET","MN",10011,-73.9964,40.7391,0
"111 WEST 183 STREET","BX",10453,-73.909,40.8605,0
"111 WEST 225 STREET","MN",10463,-73.9107,40.8747,0
"111 WEST 74 STREET","MN",10023,-73.9785,40.7792,0
"111 WEST 77 STREET","MN",10024,-73.9769,40.7811,0
"111 WEST 96 STREET","MN",10025,-73.9682,40.7934,0
"111 WILSON AVENUE","BK",11237,-73.9265,40.7014,1
"111 WITHERS STREET","BK",11211,-73.9477,40.7173,0
"111 WOODRUFF AVENUE","BK",11226,-73.9625,40.6541,0
"111-01 39 AVENUE","QN",11368,-73.8561,40.7526,0
"111-01 QUEENS BOULEVARD","QN",11375,-73.8378,40.7192,0
"111-05 66 AVENUE","QN",11375,-73.8454,40.7314,0
"111-09 76 ROAD","QN",11375,-73.8367,40.7161,0
"111-10 76 ROAD","QN",11375,-73.8363,40.7158,0
"111-12 CORONA AVENUE","QN",11368,-73.8495,40.7402,0
"111-14 CORONA AVENUE","QN",11368,-73.8494,40.7402,0
"111-15 75 AVENUE","QN",11375,-73.8386,40.7178,0
"111-17 NORTHERN BOULEVARD","QN",11368,-73.8582,40.7583,0
"111-20 76 ROAD","QN",11375,-73.8359,40.7161,0
"111-23 76 ROAD","QN",11375,-73.8363,40.7164,0
"111-32 76 AVENUE","QN",11375,-73.8363,40.7169,0
"111-35 75 AVENUE","QN",11375,-73.8383,40.7182,0
"111-39 76 ROAD","QN",11375,-73.8359,40.7167,0
"111-45 76 DRIVE","QN",11375,-73.8351,40.7163,0
"111-46 76 DRIVE","QN",11375,-73.8346,40.716,0
"111-50 70 AVENUE","QN",11375,-73.8366,40.7176,0
"111-50 76 ROAD","QN",11375,-73.8355,40.7164,0
"111-55 77 AVENUE","QN",11375,-73.8343,40.7159,0
"111-56 76 DRIVE","QN",11375,-73.8344,40.7162,0
"111-88 43 AVENUE","QN",11368,-73.8516,40.7503,0
"1110 ANDERSON AVENUE","BX",10452,-73.9249,40.8348,0
"1110 CARROLL STREET","BK",11225,-73.9541,40.6671,0
"1110 CATON AVENUE","BK",11218,-73.9693,40.6488,0
"1110 COLLEGE AVENUE","BX",10456,-73.9144,40.8305,1
"1110 LYDIG AVENUE","BX",10461,-73.8564,40.8547,0
"1110 STADIUM AVENUE","BX",10465,-73.817,40.8363,0
"1110 WYATT STREET","BX",10460,-73.8776,40.8391,0
"1111 1 AVENUE","MN",10065,-73.9614,40.7609,0
"1111 AVENUE K","BK",11230,-73.9607,40.6226,0
"1111 CARROLL STREET","BK",11225,-73.9527,40.6676,0
"1111 GERARD AVENUE","BX",10452,-73.9217,40.8336,0
"1111 INTERVALE AVENUE","BX",10459,-73.8972,40.8266,0
"1111 WESTCHESTER AVENUE","BX",10459,-73.8903,40.8257,0
"1111 WILLOUGHBY AVENUE","BK",11237,-73.926,40.7014,0
"1112 47 STREET","BK",11219,-73.9951,40.6384,0
"1112 CARROLL PLACE","BX",10456,-73.9185,40.832,0
"1112 GERARD AVENUE","BX",10452,-73.9213,40.8332,0
"1112 WILLOUGHBY AVENUE","BK",11237,-73.9255,40.7011,0
"1113 1 AVENUE","MN",10065,-73.9612,40.7611,0
"1113 AVENUE O","BK",11230,-73.9622,40.6128,0
"1113 EAST 34 STREET","BK",11210,-73.9431,40.629,0
"1113 MADISON AVENUE","MN",10028,-73.9597,40.7791,0
"1113 MADISON STREET","BK",11221,-73.9164,40.692,0
"1113 SHERIDAN AVENUE","BX",10456,-73.9182,40.8321,0
"1113 WALTON AVENUE","BX",10452,-73.9209,40.8331,0
"1113 WARD AVENUE","BX",10472,-73.8771,40.8265,0
"1113 WILLOUGHBY AVENUE","BK",11237,-73.9259,40.7014,0
"1114 47 STREET","BK",11219,-73.995,40.6383,0
"1114 COLLEGE AVENUE","BX",10456,-73.9143,40.8306,1
"1114 MADISON AVENUE","MN",10028,-73.9604,40.7792,0
"1114 MORRIS AVENUE","BX",10456,-73.9151,40.8309,0
"1114 NEILL AVENUE","BX",10461,-73.8554,40.8535,1
"1114 NEW YORK AVENUE","BK",11203,-73.9465,40.646,0
"1114 NOSTRAND AVENUE","BK",11225,-73.951,40.6606,0
"1114 STRATFORD AVENUE","BX",10472,-73.8747,40.8271,0
"1114 WARD AVENUE","BX",10472,-73.8765,40.8266,0
"1114 WILLOUGHBY AVENUE","BK",11237,-73.9255,40.7012,0
"1115 1 AVENUE","MN",10065,-73.9612,40.7612,0
"1115 63 STREET","BK",11219,-74.0039,40.6296,0
"1115 BOSTON ROAD","BX",10456,-73.9048,40.8278,0
"1115 CARROLL STREET","BK",11225,-73.9526,40.6676,0
"1115 COLLEGE AVENUE","BX",10456,-73.9148,40.8308,0
"1115 JEROME AVENUE","BX",10452,-73.9246,40.8348,0
"1115 UNION STREET","BK",11225,-73.9562,40.6695,0
"1115 WILLMOHR STREET","BK",11212,-73.9177,40.6573,0
"1115 WILLOUGHBY AVENUE","BK",11237,-73.9259,40.7015,0
"1116 AVENUE H","BK",11230,-73.9654,40.6294,0
"1116 CARROLL STREET","BK",11225,-73.9538,40.6671,0
"1116 TINTON AVENUE","BX",10456,-73.9012,40.8265,0
"1117 8 AVENUE","BK",11215,-73.9803,40.664,0
"1117 INTERVALE AVENUE","BX",10459,-73.8971,40.8267,0
"1117 MANOR AVENUE","BX",10472,-73.8762,40.8269,0
"1117 ST MARKS AVENUE","BK",11213,-73.9328,40.6745,0
"1117 WESTCHESTER AVENUE","BX",10459,-73.89,40.826,0
"1118 1 AVENUE","MN",10065,-73.9606,40.761,0
"1118 FINDLAY AVENUE","BX",10456,-73.9134,40.8305,0
"1118 INTERVALE AVENUE","BX",10459,-73.8964,40.8263,0
"1118 LENOX ROAD","BK",11212,-73.919,40.6587,0
"1118 MADISON STREET","BK",11221,-73.9157,40.6921,0
"1118 SOUTHERN BOULEVARD","BX",10459,-73.8917,40.8266,1
"1118 WILLOUGHBY AVENUE","BK",11237,-73.9254,40.7013,0
"1119 64 STREET","BK",11219,-74.0045,40.629,0
"1119 AVENUE U","BK",11223,-73.9604,40.5986,1
"1119 CARROLL STREET","BK",11225,-73.9525,40.6675,1
"1119 FOSTER AVENUE","BK",11230,-73.9661,40.6329,0
